{"type":"FeatureCollection","features":[{"type":"Feature","properties":{"pinType":"gp","name":"Four Treasures Traditional Chinese Medicine","osmUrl":"https://www.openstreetmap.org/node/2861322601"},"geometry":{"type":"Point","coordinates":[130.8521287,-12.4001676]}},{"type":"Feature","properties":{"pinType":"gp","name":"Medical Centre","osmUrl":"https://www.openstreetmap.org/node/5441578737"},"geometry":{"type":"Point","coordinates":[131.0427915,-12.5252813]}},{"type":"Feature","properties":{"pinType":"gp","name":"Health Centre","osmUrl":"https://www.openstreetmap.org/node/5441578740"},"geometry":{"type":"Point","coordinates":[131.0431409,-12.523146]}},{"type":"Feature","properties":{"pinType":"gp","name":"Psychologist","osmUrl":"https://www.openstreetmap.org/node/5441578742"},"geometry":{"type":"Point","coordinates":[131.0433233,-12.523273]}},{"type":"Feature","properties":{"pinType":"gp","name":"Top End Medical Centre","osmUrl":"https://www.openstreetmap.org/node/6267324343"},"geometry":{"type":"Point","coordinates":[130.983276,-12.4709664]}},{"type":"Feature","properties":{"pinType":"gp","name":"gp","osmUrl":"https://www.openstreetmap.org/node/7903667414"},"geometry":{"type":"Point","coordinates":[131.0139911,-12.7027198]}},{"type":"Feature","properties":{"pinType":"gp","name":"Belyuen Health Centre","osmUrl":"https://www.openstreetmap.org/node/9081518747"},"geometry":{"type":"Point","coordinates":[130.7003865,-12.5386826]}},{"type":"Feature","properties":{"pinType":"gp","name":"The Spot","osmUrl":"https://www.openstreetmap.org/node/13298573584"},"geometry":{"type":"Point","coordinates":[130.8404018,-12.4616187]}},{"type":"Feature","properties":{"pinType":"gp","name":"Care Point Johnston Medical Clinic","url":"https://carepointjohnston.com.au","osmUrl":"https://www.openstreetmap.org/node/13516584542"},"geometry":{"type":"Point","coordinates":[131.0062376,-12.4915569]}},{"type":"Feature","properties":{"pinType":"gp","name":"Right Care Medical Centre","url":"https://rightcaremedicalcentre.com.au","osmUrl":"https://www.openstreetmap.org/node/13719878301"},"geometry":{"type":"Point","coordinates":[130.8629235,-12.3872984]}},{"type":"Feature","properties":{"pinType":"gp","name":"Family Planning","osmUrl":"https://www.openstreetmap.org/node/13807655901"},"geometry":{"type":"Point","coordinates":[130.8519821,-12.4007927]}},{"type":"Feature","properties":{"pinType":"gp","name":"National Critical Care and Trauma Response Centre","osmUrl":"https://www.openstreetmap.org/node/13830290869"},"geometry":{"type":"Point","coordinates":[130.8846545,-12.4095875]}},{"type":"Feature","properties":{"pinType":"gp","name":"Bakewell medical Centre","osmUrl":"https://www.openstreetmap.org/node/13880248303"},"geometry":{"type":"Point","coordinates":[130.9869078,-12.5000913]}},{"type":"Feature","properties":{"pinType":"gp","name":"Robertson Health Centre","osmUrl":"https://www.openstreetmap.org/way/173695467"},"geometry":{"type":"Point","coordinates":[130.9778348,-12.4367478]}},{"type":"Feature","properties":{"pinType":"gp","name":"Darwin Medicare Mental Health Centre","url":"https://www.neaminational.org.au/services/darwin-medicare-mental-health-centre/","osmUrl":"https://www.openstreetmap.org/way/233930095"},"geometry":{"type":"Point","coordinates":[130.8814132,-12.3718504]}},{"type":"Feature","properties":{"pinType":"gp","name":"Arafura Medical","osmUrl":"https://www.openstreetmap.org/way/233930098"},"geometry":{"type":"Point","coordinates":[130.8827858,-12.3719385]}},{"type":"Feature","properties":{"pinType":"gp","name":"Cavenagh Medical Centre","url":"https://www.cavmed.com.au/","osmUrl":"https://www.openstreetmap.org/way/372518532"},"geometry":{"type":"Point","coordinates":[130.8427494,-12.4598226]}},{"type":"Feature","properties":{"pinType":"gp","name":"Top End Medical Center - Rosebery","url":"https://topendmedicalcentre.com.au/","osmUrl":"https://www.openstreetmap.org/way/435314692"},"geometry":{"type":"Point","coordinates":[130.9899362,-12.5085197]}},{"type":"Feature","properties":{"pinType":"gp","name":"Belyuen Health Centre","osmUrl":"https://www.openstreetmap.org/way/441922044"},"geometry":{"type":"Point","coordinates":[130.7003937,-12.5386943]}},{"type":"Feature","properties":{"pinType":"gp","name":"Palmerston Super Clinic","osmUrl":"https://www.openstreetmap.org/way/557898848"},"geometry":{"type":"Point","coordinates":[130.9902212,-12.4792868]}},{"type":"Feature","properties":{"pinType":"gp","name":"Tiwi Medical Clinic","osmUrl":"https://www.openstreetmap.org/way/603976707"},"geometry":{"type":"Point","coordinates":[130.8736601,-12.3625854]}},{"type":"Feature","properties":{"pinType":"gp","name":"carpentaria","url":"https://www.carpentaria.org.au/","osmUrl":"https://www.openstreetmap.org/way/622698121"},"geometry":{"type":"Point","coordinates":[130.8849338,-12.3671358]}},{"type":"Feature","properties":{"pinType":"gp","name":"Top End Mental Health Service Tamarind Center","osmUrl":"https://www.openstreetmap.org/way/1242328231"},"geometry":{"type":"Point","coordinates":[130.8486813,-12.4319789]}},{"type":"Feature","properties":{"pinType":"gp","name":"Moil Medical Centre","url":"https://www.moilmedicalcentre.com.au/","osmUrl":"https://www.openstreetmap.org/way/1436127857"},"geometry":{"type":"Point","coordinates":[130.8827558,-12.3903834]}},{"type":"Feature","properties":{"pinType":"school","name":"Stuart Park Primary School","url":"https://stuartparkprimary.nt.edu.au/","osmUrl":"https://www.openstreetmap.org/node/3753066250"},"geometry":{"type":"Point","coordinates":[130.8448625,-12.4407323]}},{"type":"Feature","properties":{"pinType":"school","name":"Bees Creek Primary School","url":"http://beescreekschool.com/","osmUrl":"https://www.openstreetmap.org/node/3778077608"},"geometry":{"type":"Point","coordinates":[131.0531986,-12.5409504]}},{"type":"Feature","properties":{"pinType":"school","name":"Bakewell Primary School","osmUrl":"https://www.openstreetmap.org/node/3802886610"},"geometry":{"type":"Point","coordinates":[130.9939526,-12.4934874]}},{"type":"Feature","properties":{"pinType":"school","name":"Charles Darwin Uni","osmUrl":"https://www.openstreetmap.org/node/5134976121"},"geometry":{"type":"Point","coordinates":[130.8675993,-12.3716195]}},{"type":"Feature","properties":{"pinType":"school","name":"Durack Primary","osmUrl":"https://www.openstreetmap.org/node/5307843575"},"geometry":{"type":"Point","coordinates":[130.9737521,-12.4756269]}},{"type":"Feature","properties":{"pinType":"school","name":"First Aid Pro","url":"https://www.firstaidpro.com.au/","osmUrl":"https://www.openstreetmap.org/node/13117041201"},"geometry":{"type":"Point","coordinates":[130.8366082,-12.4605912]}},{"type":"Feature","properties":{"pinType":"school","name":"Bakewell Primary School","url":"https://bakewellprimary.com.au/","osmUrl":"https://www.openstreetmap.org/way/228464616"},"geometry":{"type":"Point","coordinates":[130.9944888,-12.4931779]}},{"type":"Feature","properties":{"pinType":"school","name":"Sanderson High School","osmUrl":"https://www.openstreetmap.org/way/241225224"},"geometry":{"type":"Point","coordinates":[130.8989612,-12.3890085]}},{"type":"Feature","properties":{"pinType":"school","name":"Leanyer Primary","url":"https://leanyerschool.nt.edu.au/","osmUrl":"https://www.openstreetmap.org/way/241225225"},"geometry":{"type":"Point","coordinates":[130.8995265,-12.3751793]}},{"type":"Feature","properties":{"pinType":"school","name":"Wulagi Primary School","osmUrl":"https://www.openstreetmap.org/way/241225228"},"geometry":{"type":"Point","coordinates":[130.8953671,-12.3834661]}},{"type":"Feature","properties":{"pinType":"school","name":"Anula Primary School","osmUrl":"https://www.openstreetmap.org/way/241230063"},"geometry":{"type":"Point","coordinates":[130.8933617,-12.3913366]}},{"type":"Feature","properties":{"pinType":"school","name":"Manunda Terrace Primary","osmUrl":"https://www.openstreetmap.org/way/241379695"},"geometry":{"type":"Point","coordinates":[130.9192924,-12.4031732]}},{"type":"Feature","properties":{"pinType":"school","name":"Karama Primary","osmUrl":"https://www.openstreetmap.org/way/241379703"},"geometry":{"type":"Point","coordinates":[130.914521,-12.397767]}},{"type":"Feature","properties":{"pinType":"school","name":"Marrara Christian College","url":"https://www.mcc.nt.edu.au/","osmUrl":"https://www.openstreetmap.org/way/241380541"},"geometry":{"type":"Point","coordinates":[130.9166114,-12.4097809]}},{"type":"Feature","properties":{"pinType":"school","name":"Gray Primary School","osmUrl":"https://www.openstreetmap.org/way/241458498"},"geometry":{"type":"Point","coordinates":[130.9803371,-12.4897505]}},{"type":"Feature","properties":{"pinType":"school","name":"Moulden Park Primary School","osmUrl":"https://www.openstreetmap.org/way/241458533"},"geometry":{"type":"Point","coordinates":[130.9710736,-12.5063821]}},{"type":"Feature","properties":{"pinType":"school","name":"Rosebery Secondary School","url":"http://roseberymiddle.nt.edu.au/","osmUrl":"https://www.openstreetmap.org/way/241470214"},"geometry":{"type":"Point","coordinates":[130.9915289,-12.5102795]}},{"type":"Feature","properties":{"pinType":"school","name":"Taminmin College","url":"https://www.taminmin.nt.edu.au/","osmUrl":"https://www.openstreetmap.org/way/241736828"},"geometry":{"type":"Point","coordinates":[131.1018763,-12.5806038]}},{"type":"Feature","properties":{"pinType":"school","name":"Humpty Doo Primary School","osmUrl":"https://www.openstreetmap.org/way/241736836"},"geometry":{"type":"Point","coordinates":[131.1023555,-12.5763415]}},{"type":"Feature","properties":{"pinType":"school","name":"St Francis Assisi School","osmUrl":"https://www.openstreetmap.org/way/241736837"},"geometry":{"type":"Point","coordinates":[131.0991111,-12.5816317]}},{"type":"Feature","properties":{"pinType":"school","name":"Howard Spring Primary School","osmUrl":"https://www.openstreetmap.org/way/241738188"},"geometry":{"type":"Point","coordinates":[131.0451751,-12.4953507]}},{"type":"Feature","properties":{"pinType":"school","name":"Nightcliff Middle School","osmUrl":"https://www.openstreetmap.org/way/275638804"},"geometry":{"type":"Point","coordinates":[130.8526321,-12.3777394]}},{"type":"Feature","properties":{"pinType":"school","name":"Nightcliff Primary School","osmUrl":"https://www.openstreetmap.org/way/275638805"},"geometry":{"type":"Point","coordinates":[130.8502896,-12.3809043]}},{"type":"Feature","properties":{"pinType":"school","name":"St Mary's Primary School","osmUrl":"https://www.openstreetmap.org/way/372699842"},"geometry":{"type":"Point","coordinates":[130.8393497,-12.4594801]}},{"type":"Feature","properties":{"pinType":"school","name":"Haileybury Rendall School","url":"https://www.haileyburyrendall.com.au/","osmUrl":"https://www.openstreetmap.org/way/406171211"},"geometry":{"type":"Point","coordinates":[130.9222082,-12.4424819]}},{"type":"Feature","properties":{"pinType":"school","name":"school","osmUrl":"https://www.openstreetmap.org/way/406566958"},"geometry":{"type":"Point","coordinates":[130.845305,-12.4410381]}},{"type":"Feature","properties":{"pinType":"school","name":"Palmerston Christian School","url":"https://www.pcs.nt.edu.au/","osmUrl":"https://www.openstreetmap.org/way/417515623"},"geometry":{"type":"Point","coordinates":[130.9645802,-12.4905665]}},{"type":"Feature","properties":{"pinType":"school","name":"Belyuen School","url":"https://web.ntschools.net/w/tegs/Pages/Belyuen.aspx","osmUrl":"https://www.openstreetmap.org/way/423315957"},"geometry":{"type":"Point","coordinates":[130.7014372,-12.5389433]}},{"type":"Feature","properties":{"pinType":"school","name":"Jingili Primary School","osmUrl":"https://www.openstreetmap.org/way/488995009"},"geometry":{"type":"Point","coordinates":[130.8742639,-12.3872139]}},{"type":"Feature","properties":{"pinType":"school","name":"Alawa School Farm","osmUrl":"https://www.openstreetmap.org/way/506013359"},"geometry":{"type":"Point","coordinates":[130.8765378,-12.3793863]}},{"type":"Feature","properties":{"pinType":"school","name":"Mother Teresa Catholic Primary School","osmUrl":"https://www.openstreetmap.org/way/548474991"},"geometry":{"type":"Point","coordinates":[131.0063306,-12.5128536]}},{"type":"Feature","properties":{"pinType":"school","name":"Sacred Heart Primary","osmUrl":"https://www.openstreetmap.org/way/552941494"},"geometry":{"type":"Point","coordinates":[130.9793406,-12.4957546]}},{"type":"Feature","properties":{"pinType":"school","name":"Woodroffe Primary School","url":"https://web.ntschools.net/w/woodroffeprimary/","osmUrl":"https://www.openstreetmap.org/way/552946681"},"geometry":{"type":"Point","coordinates":[130.9824872,-12.506003]}},{"type":"Feature","properties":{"pinType":"school","name":"Rosebery Primary School","url":"https://roseberyprimary.nt.edu.au/","osmUrl":"https://www.openstreetmap.org/way/552956314"},"geometry":{"type":"Point","coordinates":[130.9938915,-12.5110224]}},{"type":"Feature","properties":{"pinType":"school","name":"Darwin Middle School","url":"https://darwinmiddle.nt.edu.au","osmUrl":"https://www.openstreetmap.org/way/553039128"},"geometry":{"type":"Point","coordinates":[130.8354061,-12.4381982]}},{"type":"Feature","properties":{"pinType":"school","name":"Parap Primary","osmUrl":"https://www.openstreetmap.org/way/553679691"},"geometry":{"type":"Point","coordinates":[130.8445468,-12.42966]}},{"type":"Feature","properties":{"pinType":"school","name":"Ludmilla Primary","url":"https://www.ludmillaprimary.nt.edu.au/","osmUrl":"https://www.openstreetmap.org/way/553683886"},"geometry":{"type":"Point","coordinates":[130.8551422,-12.4248642]}},{"type":"Feature","properties":{"pinType":"school","name":"Driver Primary","osmUrl":"https://www.openstreetmap.org/way/554600302"},"geometry":{"type":"Point","coordinates":[130.9754865,-12.4864636]}},{"type":"Feature","properties":{"pinType":"school","name":"Zucculi Primary School","osmUrl":"https://www.openstreetmap.org/way/554774770"},"geometry":{"type":"Point","coordinates":[131.0060564,-12.5118982]}},{"type":"Feature","properties":{"pinType":"school","name":"Alawa Primary","osmUrl":"https://www.openstreetmap.org/way/555911706"},"geometry":{"type":"Point","coordinates":[130.8768918,-12.380052]}},{"type":"Feature","properties":{"pinType":"school","name":"Nemarluk School","url":"https://www.nemarlukschool.com.au/","osmUrl":"https://www.openstreetmap.org/way/555911707"},"geometry":{"type":"Point","coordinates":[130.8748631,-12.3800224]}},{"type":"Feature","properties":{"pinType":"school","name":"Good Shepherd Lutheran College","url":"https://goodshepherd.nt.edu.au/","osmUrl":"https://www.openstreetmap.org/way/555958876"},"geometry":{"type":"Point","coordinates":[130.8994694,-12.3735234]}},{"type":"Feature","properties":{"pinType":"school","name":"The Essington School","url":"https://www.essington.nt.edu.au","osmUrl":"https://www.openstreetmap.org/way/556656905"},"geometry":{"type":"Point","coordinates":[130.8571998,-12.3823816]}},{"type":"Feature","properties":{"pinType":"school","name":"St Paul’s Catholic Primary School","osmUrl":"https://www.openstreetmap.org/way/556659168"},"geometry":{"type":"Point","coordinates":[130.8577246,-12.3870655]}},{"type":"Feature","properties":{"pinType":"school","name":"Holy Family Catholic Primary","osmUrl":"https://www.openstreetmap.org/way/560071654"},"geometry":{"type":"Point","coordinates":[130.9123847,-12.3936811]}},{"type":"Feature","properties":{"pinType":"school","name":"Forrest Parade School","url":"https://forrestparadeschool.nt.edu.au","osmUrl":"https://www.openstreetmap.org/way/582523935"},"geometry":{"type":"Point","coordinates":[130.9805576,-12.5139985]}},{"type":"Feature","properties":{"pinType":"school","name":"St Mary's Primary School","osmUrl":"https://www.openstreetmap.org/way/589988744"},"geometry":{"type":"Point","coordinates":[130.8389128,-12.4594404]}},{"type":"Feature","properties":{"pinType":"school","name":"Millner Primary","url":"https://www.millnerprimary.nt.edu.au/","osmUrl":"https://www.openstreetmap.org/way/602291567"},"geometry":{"type":"Point","coordinates":[130.8597906,-12.3912624]}},{"type":"Feature","properties":{"pinType":"school","name":"Henbury School","osmUrl":"https://www.openstreetmap.org/way/621971493"},"geometry":{"type":"Point","coordinates":[130.8837962,-12.3675169]}},{"type":"Feature","properties":{"pinType":"school","name":"Dripstone Secondary College","url":"https://dripstonemiddle.nt.edu.au","osmUrl":"https://www.openstreetmap.org/way/621971512"},"geometry":{"type":"Point","coordinates":[130.8830845,-12.3656109]}},{"type":"Feature","properties":{"pinType":"school","name":"Wagaman Primary School","osmUrl":"https://www.openstreetmap.org/way/761161011"},"geometry":{"type":"Point","coordinates":[130.8844486,-12.3802837]}},{"type":"Feature","properties":{"pinType":"school","name":"Bees Creek Primary School","osmUrl":"https://www.openstreetmap.org/way/978958802"},"geometry":{"type":"Point","coordinates":[131.0528354,-12.5408642]}},{"type":"Feature","properties":{"pinType":"school","name":"Berry Springs Primary","url":"https://berryspringsprimary.nt.edu.au/","osmUrl":"https://www.openstreetmap.org/way/978965604"},"geometry":{"type":"Point","coordinates":[130.9878189,-12.7155112]}},{"type":"Feature","properties":{"pinType":"school","name":"Darwin Languages Centre","url":"https://ntschools-dedlcl.libguides.com/dlc","osmUrl":"https://www.openstreetmap.org/way/979456793"},"geometry":{"type":"Point","coordinates":[130.8556522,-12.4229189]}},{"type":"Feature","properties":{"pinType":"school","name":"Durack Primary","osmUrl":"https://www.openstreetmap.org/way/979458470"},"geometry":{"type":"Point","coordinates":[130.9740074,-12.4758673]}},{"type":"Feature","properties":{"pinType":"school","name":"Girraween Primary School","osmUrl":"https://www.openstreetmap.org/way/979753157"},"geometry":{"type":"Point","coordinates":[131.1024593,-12.5220184]}},{"type":"Feature","properties":{"pinType":"school","name":"Good Shepherd Lutheran College","osmUrl":"https://www.openstreetmap.org/way/979754573"},"geometry":{"type":"Point","coordinates":[131.0236552,-12.4948508]}},{"type":"Feature","properties":{"pinType":"school","name":"Mimik-Ga Centre","osmUrl":"https://www.openstreetmap.org/way/979763808"},"geometry":{"type":"Point","coordinates":[130.8836297,-12.369279]}},{"type":"Feature","properties":{"pinType":"school","name":"Holy Spirit Catholic Primary","osmUrl":"https://www.openstreetmap.org/way/979774854"},"geometry":{"type":"Point","coordinates":[130.8849529,-12.3725222]}},{"type":"Feature","properties":{"pinType":"school","name":"Larrakeyah Primary School","osmUrl":"https://www.openstreetmap.org/way/979801115"},"geometry":{"type":"Point","coordinates":[130.8294377,-12.4572643]}},{"type":"Feature","properties":{"pinType":"school","name":"Malak Primary School","osmUrl":"https://www.openstreetmap.org/way/979907244"},"geometry":{"type":"Point","coordinates":[130.9029218,-12.3921586]}},{"type":"Feature","properties":{"pinType":"school","name":"Middle Point School","osmUrl":"https://www.openstreetmap.org/way/979918633"},"geometry":{"type":"Point","coordinates":[131.3149676,-12.5759164]}},{"type":"Feature","properties":{"pinType":"school","name":"Moil Primary School","osmUrl":"https://www.openstreetmap.org/way/979941608"},"geometry":{"type":"Point","coordinates":[130.8805911,-12.3881085]}},{"type":"Feature","properties":{"pinType":"school","name":"Wanguri Primary","osmUrl":"https://www.openstreetmap.org/way/980835447"},"geometry":{"type":"Point","coordinates":[130.8872711,-12.3713916]}},{"type":"Feature","properties":{"pinType":"school","name":"Milkwood Steiner School","url":"https://milkwood.nt.edu.au/","osmUrl":"https://www.openstreetmap.org/way/988209715"},"geometry":{"type":"Point","coordinates":[130.9222989,-12.4145199]}},{"type":"Feature","properties":{"pinType":"school","name":"Nakara Primary School","osmUrl":"https://www.openstreetmap.org/relation/15446216"},"geometry":{"type":"Point","coordinates":[130.8779163,-12.3700766]}},{"type":"Feature","properties":{"pinType":"post_office","name":"Darwin River postal agency","osmUrl":"https://www.openstreetmap.org/node/1629551122"},"geometry":{"type":"Point","coordinates":[130.9625479,-12.7805316]}},{"type":"Feature","properties":{"pinType":"post_office","name":"Darwin Post Office","osmUrl":"https://www.openstreetmap.org/node/1770216857"},"geometry":{"type":"Point","coordinates":[130.8418822,-12.4609198]}},{"type":"Feature","properties":{"pinType":"post_office","name":"Casuarina Post Office","osmUrl":"https://www.openstreetmap.org/node/4341065702"},"geometry":{"type":"Point","coordinates":[130.8795869,-12.375765]}},{"type":"Feature","properties":{"pinType":"post_office","name":"Australia Post Parap","osmUrl":"https://www.openstreetmap.org/node/5024135612"},"geometry":{"type":"Point","coordinates":[130.8446462,-12.4308687]}},{"type":"Feature","properties":{"pinType":"post_office","name":"Australia Post","osmUrl":"https://www.openstreetmap.org/node/5441578418"},"geometry":{"type":"Point","coordinates":[131.0412553,-12.5235466]}},{"type":"Feature","properties":{"pinType":"post_office","name":"Australia Post Nightcliff LPO","osmUrl":"https://www.openstreetmap.org/node/5539169774"},"geometry":{"type":"Point","coordinates":[130.8504874,-12.387618]}},{"type":"Feature","properties":{"pinType":"post_office","name":"Karama Post Office","osmUrl":"https://www.openstreetmap.org/node/5720362546"},"geometry":{"type":"Point","coordinates":[130.9160095,-12.4009599]}},{"type":"Feature","properties":{"pinType":"post_office","name":"Winellie Post Office","osmUrl":"https://www.openstreetmap.org/node/6422270592"},"geometry":{"type":"Point","coordinates":[130.8646104,-12.4269741]}},{"type":"Feature","properties":{"pinType":"post_office","name":"Nighthawk Transport","osmUrl":"https://www.openstreetmap.org/node/11590231657"},"geometry":{"type":"Point","coordinates":[130.9158501,-12.4783472]}},{"type":"Feature","properties":{"pinType":"post_office","name":"Menzies Aviation","osmUrl":"https://www.openstreetmap.org/node/11601247017"},"geometry":{"type":"Point","coordinates":[130.8717118,-12.398593]}},{"type":"Feature","properties":{"pinType":"post_office","name":"Qantas Freight","osmUrl":"https://www.openstreetmap.org/node/11749340869"},"geometry":{"type":"Point","coordinates":[130.8822323,-12.4094506]}},{"type":"Feature","properties":{"pinType":"post_office","name":"Australia Post Palmerston Shopping Center","url":"https://auspost.com.au/locate/showpop/545545","osmUrl":"https://www.openstreetmap.org/node/11785234769"},"geometry":{"type":"Point","coordinates":[130.985288,-12.4810522]}},{"type":"Feature","properties":{"pinType":"post_office","name":"Jetstream Air Services","url":"https://jetstreamairservices.com/","osmUrl":"https://www.openstreetmap.org/node/11820191169"},"geometry":{"type":"Point","coordinates":[130.8755012,-12.4042441]}},{"type":"Feature","properties":{"pinType":"post_office","name":"Darwin GPO Plaza","osmUrl":"https://www.openstreetmap.org/way/241866997"},"geometry":{"type":"Point","coordinates":[130.8419276,-12.4608812]}},{"type":"Feature","properties":{"pinType":"post_office","name":"Australia Post","osmUrl":"https://www.openstreetmap.org/way/544652431"},"geometry":{"type":"Point","coordinates":[130.9832864,-12.4796773]}},{"type":"Feature","properties":{"pinType":"pathology_lab","name":"Western Diagnostic Pathology","osmUrl":"https://www.openstreetmap.org/node/11115172346"},"geometry":{"type":"Point","coordinates":[130.8415485,-12.4465657]}},{"type":"Feature","properties":{"pinType":"bank","name":"NAB","osmUrl":"https://www.openstreetmap.org/node/3408868112"},"geometry":{"type":"Point","coordinates":[130.839631,-12.4613013]}},{"type":"Feature","properties":{"pinType":"bank","name":"Westpac","osmUrl":"https://www.openstreetmap.org/node/5136934221"},"geometry":{"type":"Point","coordinates":[130.8434128,-12.4645522]}},{"type":"Feature","properties":{"pinType":"bank","name":"People's Choice Bank","url":"https://www.peopleschoice.com.au/locate-us/branches/palmerston","osmUrl":"https://www.openstreetmap.org/node/5426594221"},"geometry":{"type":"Point","coordinates":[130.9847783,-12.481674]}},{"type":"Feature","properties":{"pinType":"bank","name":"NAB","osmUrl":"https://www.openstreetmap.org/node/5426598724"},"geometry":{"type":"Point","coordinates":[130.9850728,-12.4803268]}},{"type":"Feature","properties":{"pinType":"bank","name":"Bendigo Bank","osmUrl":"https://www.openstreetmap.org/node/5441578728"},"geometry":{"type":"Point","coordinates":[131.0421833,-12.5241724]}},{"type":"Feature","properties":{"pinType":"bank","name":"Westpac","osmUrl":"https://www.openstreetmap.org/node/6267321286"},"geometry":{"type":"Point","coordinates":[130.9828557,-12.471059]}},{"type":"Feature","properties":{"pinType":"bank","name":"Police Credit Union","osmUrl":"https://www.openstreetmap.org/node/6267321296"},"geometry":{"type":"Point","coordinates":[130.9840282,-12.4705743]}},{"type":"Feature","properties":{"pinType":"bank","name":"Traditional Credit Union (TCU) Casuarina","osmUrl":"https://www.openstreetmap.org/node/11568442170"},"geometry":{"type":"Point","coordinates":[130.8787518,-12.3758844]}},{"type":"Feature","properties":{"pinType":"bank","name":"ANZ","osmUrl":"https://www.openstreetmap.org/node/11896007769"},"geometry":{"type":"Point","coordinates":[130.8423075,-12.461496]}},{"type":"Feature","properties":{"pinType":"bank","name":"australianmilitarybank","url":"https://www.australianmilitarybank.com.au/","osmUrl":"https://www.openstreetmap.org/node/13537080474"},"geometry":{"type":"Point","coordinates":[130.9761625,-12.4374736]}},{"type":"Feature","properties":{"pinType":"bank","name":"Bendigo Bank","osmUrl":"https://www.openstreetmap.org/way/333836216"},"geometry":{"type":"Point","coordinates":[130.8399177,-12.4617951]}},{"type":"Feature","properties":{"pinType":"bank","name":"Commonwealth Bank","osmUrl":"https://www.openstreetmap.org/way/372439893"},"geometry":{"type":"Point","coordinates":[130.8397533,-12.4616451]}},{"type":"Feature","properties":{"pinType":"bank","name":"Commonwealth Bank","url":"https://www.commbank.com.au/","osmUrl":"https://www.openstreetmap.org/way/1250385726"},"geometry":{"type":"Point","coordinates":[130.8809213,-12.3738097]}},{"type":"Feature","properties":{"pinType":"bank","name":"ANZ","osmUrl":"https://www.openstreetmap.org/way/1250385775"},"geometry":{"type":"Point","coordinates":[130.8809943,-12.3735852]}},{"type":"Feature","properties":{"pinType":"bank","name":"NAB","osmUrl":"https://www.openstreetmap.org/way/1250385790"},"geometry":{"type":"Point","coordinates":[130.8809624,-12.373697]}},{"type":"Feature","properties":{"pinType":"bank","name":"People's Choice Credit Union","osmUrl":"https://www.openstreetmap.org/way/1250385915"},"geometry":{"type":"Point","coordinates":[130.8814461,-12.375392]}},{"type":"Feature","properties":{"pinType":"bank","name":"Westpac","osmUrl":"https://www.openstreetmap.org/way/1250385923"},"geometry":{"type":"Point","coordinates":[130.8817246,-12.3762071]}},{"type":"Feature","properties":{"pinType":"tafe","name":"MacKillop Catholic College","url":"https://www.mackillopnt.catholic.edu.au/","osmUrl":"https://www.openstreetmap.org/way/544431886"},"geometry":{"type":"Point","coordinates":[131.008669,-12.4987418]}},{"type":"Feature","properties":{"pinType":"tafe","name":"Driver Secondary School","osmUrl":"https://www.openstreetmap.org/way/552940027"},"geometry":{"type":"Point","coordinates":[130.9727289,-12.4948825]}},{"type":"Feature","properties":{"pinType":"tafe","name":"Good Shepherd Lutheran College","osmUrl":"https://www.openstreetmap.org/way/552941496"},"geometry":{"type":"Point","coordinates":[130.9759316,-12.4928481]}},{"type":"Feature","properties":{"pinType":"tafe","name":"Darwin High School","url":"https://darwinhigh.nt.edu.au","osmUrl":"https://www.openstreetmap.org/way/553039127"},"geometry":{"type":"Point","coordinates":[130.833993,-12.4395794]}},{"type":"Feature","properties":{"pinType":"tafe","name":"St John's College Chevalier Campus","osmUrl":"https://www.openstreetmap.org/way/553678383"},"geometry":{"type":"Point","coordinates":[130.839684,-12.4440209]}},{"type":"Feature","properties":{"pinType":"tafe","name":"Casuarina Senior College","osmUrl":"https://www.openstreetmap.org/way/555618635"},"geometry":{"type":"Point","coordinates":[130.8790269,-12.3835217]}},{"type":"Feature","properties":{"pinType":"tafe","name":"O'Loughlin Catholic College","url":"https://www.oloughlin.nt.edu.au/","osmUrl":"https://www.openstreetmap.org/way/556478376"},"geometry":{"type":"Point","coordinates":[130.9110475,-12.3930822]}},{"type":"Feature","properties":{"pinType":"tafe","name":"Nungalinya College","url":"https://www.nungalinya.edu.au/","osmUrl":"https://www.openstreetmap.org/way/591569372"},"geometry":{"type":"Point","coordinates":[130.8757964,-12.3744109]}},{"type":"Feature","properties":{"pinType":"university","name":"Charles Darwin University - Waterfront","osmUrl":"https://www.openstreetmap.org/node/13312496373"},"geometry":{"type":"Point","coordinates":[130.8454097,-12.4677396]}},{"type":"Feature","properties":{"pinType":"university","name":"Charles Darwin University","url":"https://www.cdu.edu.au/","osmUrl":"https://www.openstreetmap.org/way/154615415"},"geometry":{"type":"Point","coordinates":[130.8680228,-12.3712468]}},{"type":"Feature","properties":{"pinType":"university","name":"Charles Darwin University Palmerston Campus","osmUrl":"https://www.openstreetmap.org/way/468144396"},"geometry":{"type":"Point","coordinates":[130.9777053,-12.4763557]}},{"type":"Feature","properties":{"pinType":"university","name":"North Australian Research Unit","osmUrl":"https://www.openstreetmap.org/way/1219103672"},"geometry":{"type":"Point","coordinates":[130.8716859,-12.3699559]}},{"type":"Feature","properties":{"pinType":"pharmacy","name":"pharmacy","osmUrl":"https://www.openstreetmap.org/node/467703418"},"geometry":{"type":"Point","coordinates":[130.9855676,-12.4804508]}},{"type":"Feature","properties":{"pinType":"pharmacy","name":"pharmacy","osmUrl":"https://www.openstreetmap.org/node/467703420"},"geometry":{"type":"Point","coordinates":[130.9859281,-12.4836101]}},{"type":"Feature","properties":{"pinType":"supermarket","name":"Coles","url":"https://www.coles.com.au/find-stores/coles/nt/palmerston-450","osmUrl":"https://www.openstreetmap.org/node/467703425"},"geometry":{"type":"Point","coordinates":[130.9849839,-12.4815653]}},{"type":"Feature","properties":{"pinType":"supermarket","name":"Coles Northlakes","url":"https://www.coles.com.au/","osmUrl":"https://www.openstreetmap.org/node/493314043"},"geometry":{"type":"Point","coordinates":[130.8952414,-12.3959003]}},{"type":"Feature","properties":{"pinType":"cafe_restaurant","name":"Palmerston Tavern","osmUrl":"https://www.openstreetmap.org/node/768744933"},"geometry":{"type":"Point","coordinates":[130.983729,-12.4807153]}},{"type":"Feature","properties":{"pinType":"cafe_restaurant","name":"Madame Za by Rydges Palmerston","osmUrl":"https://www.openstreetmap.org/node/768744980"},"geometry":{"type":"Point","coordinates":[130.9885588,-12.480953]}},{"type":"Feature","properties":{"pinType":"supermarket","name":"Driver Supermarket","osmUrl":"https://www.openstreetmap.org/node/768745384"},"geometry":{"type":"Point","coordinates":[130.9733414,-12.4859611]}},{"type":"Feature","properties":{"pinType":"cafe_restaurant","name":"Domino's","osmUrl":"https://www.openstreetmap.org/node/770032306"},"geometry":{"type":"Point","coordinates":[130.9703637,-12.4799976]}},{"type":"Feature","properties":{"pinType":"supermarket","name":"Woolworths","url":"https://www.woolworths.com.au/","osmUrl":"https://www.openstreetmap.org/node/892661424"},"geometry":{"type":"Point","coordinates":[131.0425475,-12.5249035]}},{"type":"Feature","properties":{"pinType":"cafe_restaurant","name":"McDonald's","url":"https://www.mcdonalds.com.au/","osmUrl":"https://www.openstreetmap.org/node/892666292"},"geometry":{"type":"Point","coordinates":[130.8556935,-12.4099709]}},{"type":"Feature","properties":{"pinType":"cafe_restaurant","name":"cafe restaurant","osmUrl":"https://www.openstreetmap.org/node/1272657645"},"geometry":{"type":"Point","coordinates":[130.8907792,-12.3919899]}},{"type":"Feature","properties":{"pinType":"supermarket","name":"supermarket","osmUrl":"https://www.openstreetmap.org/node/1272657646"},"geometry":{"type":"Point","coordinates":[130.8908558,-12.3919953]}},{"type":"Feature","properties":{"pinType":"supermarket","name":"Moil Supermarket","osmUrl":"https://www.openstreetmap.org/node/1272657650"},"geometry":{"type":"Point","coordinates":[130.8816479,-12.3908708]}},{"type":"Feature","properties":{"pinType":"cafe_restaurant","name":"McDonald's","url":"https://www.mcdonalds.com.au/","osmUrl":"https://www.openstreetmap.org/node/1437514113"},"geometry":{"type":"Point","coordinates":[130.8406599,-12.4496045]}},{"type":"Feature","properties":{"pinType":"cafe_restaurant","name":"Wharf Precinct Food Court","osmUrl":"https://www.openstreetmap.org/node/1438363117"},"geometry":{"type":"Point","coordinates":[130.848332,-12.4707358]}},{"type":"Feature","properties":{"pinType":"pharmacy","name":"Chemist Warehouse","osmUrl":"https://www.openstreetmap.org/node/1686541189"},"geometry":{"type":"Point","coordinates":[130.8957358,-12.3957878]}},{"type":"Feature","properties":{"pinType":"cafe_restaurant","name":"Casuarina Club","osmUrl":"https://www.openstreetmap.org/node/1686542829"},"geometry":{"type":"Point","coordinates":[130.8828668,-12.3726455]}},{"type":"Feature","properties":{"pinType":"gym_leisure","name":"Marrara Sporting Complex","osmUrl":"https://www.openstreetmap.org/node/1686545268"},"geometry":{"type":"Point","coordinates":[130.8825396,-12.3991891]}},{"type":"Feature","properties":{"pinType":"gym_leisure","name":"Flight Path Golf & Outdoor Recreation","url":"https://www.flightpathgolf.com.au","osmUrl":"https://www.openstreetmap.org/node/1686553976"},"geometry":{"type":"Point","coordinates":[130.9217891,-12.4254894]}},{"type":"Feature","properties":{"pinType":"supermarket","name":"Jingili Shops","osmUrl":"https://www.openstreetmap.org/node/1768291671"},"geometry":{"type":"Point","coordinates":[130.8755134,-12.3891811]}},{"type":"Feature","properties":{"pinType":"supermarket","name":"Alawa Shops","osmUrl":"https://www.openstreetmap.org/node/1768292620"},"geometry":{"type":"Point","coordinates":[130.8743199,-12.3785604]}},{"type":"Feature","properties":{"pinType":"supermarket","name":"Wagaman Supermarket","osmUrl":"https://www.openstreetmap.org/node/1770216889"},"geometry":{"type":"Point","coordinates":[130.8866799,-12.3805691]}},{"type":"Feature","properties":{"pinType":"supermarket","name":"supermarket","osmUrl":"https://www.openstreetmap.org/node/1770216896"},"geometry":{"type":"Point","coordinates":[130.8944589,-12.3843649]}},{"type":"Feature","properties":{"pinType":"gym_leisure","name":"Jingili Skate Park","osmUrl":"https://www.openstreetmap.org/node/1804627464"},"geometry":{"type":"Point","coordinates":[130.8663184,-12.3854558]}},{"type":"Feature","properties":{"pinType":"supermarket","name":"Wanguri Shopping Centre","osmUrl":"https://www.openstreetmap.org/node/1804666118"},"geometry":{"type":"Point","coordinates":[130.8888042,-12.3689792]}},{"type":"Feature","properties":{"pinType":"supermarket","name":"Tiwi Shopping Centre","osmUrl":"https://www.openstreetmap.org/node/1804666138"},"geometry":{"type":"Point","coordinates":[130.8771277,-12.3626335]}},{"type":"Feature","properties":{"pinType":"supermarket","name":"Woolworths","url":"https://www.woolworths.com.au/Shop/StoreLocator/NT-Leanyer-5659","osmUrl":"https://www.openstreetmap.org/node/1934566383"},"geometry":{"type":"Point","coordinates":[130.8963282,-12.3779845]}},{"type":"Feature","properties":{"pinType":"cafe_restaurant","name":"Hibiscus Chinese Cafe","osmUrl":"https://www.openstreetmap.org/node/1936192834"},"geometry":{"type":"Point","coordinates":[130.8958421,-12.3774986]}},{"type":"Feature","properties":{"pinType":"pharmacy","name":"pharmacy","osmUrl":"https://www.openstreetmap.org/node/1936192837"},"geometry":{"type":"Point","coordinates":[130.8847404,-12.3760315]}},{"type":"Feature","properties":{"pinType":"cafe_restaurant","name":"cafe restaurant","osmUrl":"https://www.openstreetmap.org/node/2100741195"},"geometry":{"type":"Point","coordinates":[130.8623647,-12.3866661]}},{"type":"Feature","properties":{"pinType":"supermarket","name":"supermarket","osmUrl":"https://www.openstreetmap.org/node/2100741198"},"geometry":{"type":"Point","coordinates":[130.8625954,-12.3865875]}},{"type":"Feature","properties":{"pinType":"supermarket","name":"Virginia Store","osmUrl":"https://www.openstreetmap.org/node/2139836270"},"geometry":{"type":"Point","coordinates":[131.029056,-12.5181576]}},{"type":"Feature","properties":{"pinType":"cafe_restaurant","name":"Crazy Acres Mango Farm","osmUrl":"https://www.openstreetmap.org/node/2384911178"},"geometry":{"type":"Point","coordinates":[130.9785115,-12.7323337]}},{"type":"Feature","properties":{"pinType":"supermarket","name":"Woolworths","url":"https://www.woolworths.com.au/","osmUrl":"https://www.openstreetmap.org/node/2413275482"},"geometry":{"type":"Point","coordinates":[130.8505498,-12.3903264]}},{"type":"Feature","properties":{"pinType":"supermarket","name":"Coles","url":"https://www.coles.com.au/","osmUrl":"https://www.openstreetmap.org/node/2478924751"},"geometry":{"type":"Point","coordinates":[130.8395775,-12.4637037]}},{"type":"Feature","properties":{"pinType":"supermarket","name":"Fannie Bay Supermarket","url":"https://www.iga.com.au/stores/iga-fannie-bay/","osmUrl":"https://www.openstreetmap.org/node/2861658130"},"geometry":{"type":"Point","coordinates":[130.8367601,-12.4231951]}},{"type":"Feature","properties":{"pinType":"cafe_restaurant","name":"Fannie Bay Cool Spot","osmUrl":"https://www.openstreetmap.org/node/2861664818"},"geometry":{"type":"Point","coordinates":[130.8363471,-12.4242612]}},{"type":"Feature","properties":{"pinType":"cafe_restaurant","name":"Outback Jacks","url":"https://www.outbackjacks.com.au/","osmUrl":"https://www.openstreetmap.org/node/2864439978"},"geometry":{"type":"Point","coordinates":[130.8418069,-12.4646556]}},{"type":"Feature","properties":{"pinType":"cafe_restaurant","name":"cafe restaurant","osmUrl":"https://www.openstreetmap.org/node/2864447166"},"geometry":{"type":"Point","coordinates":[130.8405464,-12.4636862]}},{"type":"Feature","properties":{"pinType":"cafe_restaurant","name":"Mitchellis Pizza Cafe","osmUrl":"https://www.openstreetmap.org/node/2898701326"},"geometry":{"type":"Point","coordinates":[130.8392784,-12.4628257]}},{"type":"Feature","properties":{"pinType":"park","name":"Woodland Walk","osmUrl":"https://www.openstreetmap.org/node/3058376858"},"geometry":{"type":"Point","coordinates":[130.9959207,-12.7071911]}},{"type":"Feature","properties":{"pinType":"park","name":"Billabong","osmUrl":"https://www.openstreetmap.org/node/3058376859"},"geometry":{"type":"Point","coordinates":[130.9926136,-12.7038806]}},{"type":"Feature","properties":{"pinType":"park","name":"Monsoon Forrest Walk","osmUrl":"https://www.openstreetmap.org/node/3058388357"},"geometry":{"type":"Point","coordinates":[130.9960119,-12.7041782]}},{"type":"Feature","properties":{"pinType":"park","name":"Goose Lagoon","osmUrl":"https://www.openstreetmap.org/node/3058413889"},"geometry":{"type":"Point","coordinates":[130.9854011,-12.7023675]}},{"type":"Feature","properties":{"pinType":"park","name":"Burning for Bio Diversity","osmUrl":"https://www.openstreetmap.org/node/3058413890"},"geometry":{"type":"Point","coordinates":[130.9878044,-12.7038642]}},{"type":"Feature","properties":{"pinType":"park","name":"Flight Deck","osmUrl":"https://www.openstreetmap.org/node/3058413891"},"geometry":{"type":"Point","coordinates":[130.9889068,-12.7072121]}},{"type":"Feature","properties":{"pinType":"park","name":"Territory Wildlife Park - Main Station","osmUrl":"https://www.openstreetmap.org/node/3058413892"},"geometry":{"type":"Point","coordinates":[130.9896819,-12.7102433]}},{"type":"Feature","properties":{"pinType":"park","name":"Function Area","osmUrl":"https://www.openstreetmap.org/node/3058413893"},"geometry":{"type":"Point","coordinates":[130.9883247,-12.7093275]}},{"type":"Feature","properties":{"pinType":"park","name":"Picnic Area,Emus and Wallabies","osmUrl":"https://www.openstreetmap.org/node/3058413894"},"geometry":{"type":"Point","coordinates":[130.9893922,-12.7104369]}},{"type":"Feature","properties":{"pinType":"cafe_restaurant","name":"Il Lido","osmUrl":"https://www.openstreetmap.org/node/3230575925"},"geometry":{"type":"Point","coordinates":[130.8471832,-12.4687852]}},{"type":"Feature","properties":{"pinType":"cafe_restaurant","name":"The Coffee Club","url":"https://www.coffeeclub.com.au/","osmUrl":"https://www.openstreetmap.org/node/3230870934"},"geometry":{"type":"Point","coordinates":[130.8399384,-12.4633733]}},{"type":"Feature","properties":{"pinType":"cafe_restaurant","name":"Istanbul","osmUrl":"https://www.openstreetmap.org/node/3230870941"},"geometry":{"type":"Point","coordinates":[130.8394516,-12.462982]}},{"type":"Feature","properties":{"pinType":"pharmacy","name":"Amcal","osmUrl":"https://www.openstreetmap.org/node/3230980005"},"geometry":{"type":"Point","coordinates":[130.8423279,-12.4637985]}},{"type":"Feature","properties":{"pinType":"cafe_restaurant","name":"Flavour-E-Azam","osmUrl":"https://www.openstreetmap.org/node/3230980008"},"geometry":{"type":"Point","coordinates":[130.8424375,-12.4636211]}},{"type":"Feature","properties":{"pinType":"supermarket","name":"Mr Convenient","osmUrl":"https://www.openstreetmap.org/node/3231017952"},"geometry":{"type":"Point","coordinates":[130.8430444,-12.4642257]}},{"type":"Feature","properties":{"pinType":"cafe_restaurant","name":"Go Sushi","osmUrl":"https://www.openstreetmap.org/node/3231716459"},"geometry":{"type":"Point","coordinates":[130.8419141,-12.4647618]}},{"type":"Feature","properties":{"pinType":"cafe_restaurant","name":"CHOW!","osmUrl":"https://www.openstreetmap.org/node/3231716460"},"geometry":{"type":"Point","coordinates":[130.8457022,-12.4673061]}},{"type":"Feature","properties":{"pinType":"cafe_restaurant","name":"Hot Tamale","osmUrl":"https://www.openstreetmap.org/node/3231718862"},"geometry":{"type":"Point","coordinates":[130.8467776,-12.46862]}},{"type":"Feature","properties":{"pinType":"cafe_restaurant","name":"Zhen's corner","osmUrl":"https://www.openstreetmap.org/node/3408828683"},"geometry":{"type":"Point","coordinates":[130.8357516,-12.4569672]}},{"type":"Feature","properties":{"pinType":"supermarket","name":"supermarket","osmUrl":"https://www.openstreetmap.org/node/3408828684"},"geometry":{"type":"Point","coordinates":[130.8354511,-12.4564996]}},{"type":"Feature","properties":{"pinType":"cafe_restaurant","name":"Nirvana","url":"https://www.nirvanadarwin.com.au/","osmUrl":"https://www.openstreetmap.org/node/3408847493"},"geometry":{"type":"Point","coordinates":[130.8353318,-12.4564237]}},{"type":"Feature","properties":{"pinType":"cafe_restaurant","name":"Hanuman Darwin","url":"https://www.hanuman.com.au/darwin","osmUrl":"https://www.openstreetmap.org/node/3408847494"},"geometry":{"type":"Point","coordinates":[130.8368772,-12.4606977]}},{"type":"Feature","properties":{"pinType":"cafe_restaurant","name":"Asian Gateway Restaurant","url":"http://asiangateway.com.au/wp/","osmUrl":"https://www.openstreetmap.org/node/3580273493"},"geometry":{"type":"Point","coordinates":[130.8489492,-12.3795265]}},{"type":"Feature","properties":{"pinType":"supermarket","name":"Aralia Supermarket","url":"https://www.aralia.com.au","osmUrl":"https://www.openstreetmap.org/node/3580280893"},"geometry":{"type":"Point","coordinates":[130.8491417,-12.3793852]}},{"type":"Feature","properties":{"pinType":"supermarket","name":"Woolworths","url":"https://www.woolworths.com.au/","osmUrl":"https://www.openstreetmap.org/node/3751435276"},"geometry":{"type":"Point","coordinates":[130.9155059,-12.4008033]}},{"type":"Feature","properties":{"pinType":"supermarket","name":"Woolworths","osmUrl":"https://www.openstreetmap.org/node/3759068231"},"geometry":{"type":"Point","coordinates":[130.8405146,-12.4605581]}},{"type":"Feature","properties":{"pinType":"supermarket","name":"Woolworths","url":"https://www.woolworths.com.au/","osmUrl":"https://www.openstreetmap.org/node/3759068232"},"geometry":{"type":"Point","coordinates":[131.1010994,-12.5744285]}},{"type":"Feature","properties":{"pinType":"supermarket","name":"IGA Howard Springs","osmUrl":"https://www.openstreetmap.org/node/3767372791"},"geometry":{"type":"Point","coordinates":[131.0439184,-12.496768]}},{"type":"Feature","properties":{"pinType":"cafe_restaurant","name":"Boost Juice","url":"https://www.boostjuice.com.au/","osmUrl":"https://www.openstreetmap.org/node/3796152681"},"geometry":{"type":"Point","coordinates":[130.8402074,-12.4636413]}},{"type":"Feature","properties":{"pinType":"pharmacy","name":"Chemist Warehouse","osmUrl":"https://www.openstreetmap.org/node/3796152686"},"geometry":{"type":"Point","coordinates":[130.8404194,-12.4639508]}},{"type":"Feature","properties":{"pinType":"cafe_restaurant","name":"Hidden Delights Cafe","osmUrl":"https://www.openstreetmap.org/node/4084995518"},"geometry":{"type":"Point","coordinates":[130.9160862,-12.4367471]}},{"type":"Feature","properties":{"pinType":"cafe_restaurant","name":"Kurt's Cakes","osmUrl":"https://www.openstreetmap.org/node/4223293611"},"geometry":{"type":"Point","coordinates":[130.8419672,-12.461599]}},{"type":"Feature","properties":{"pinType":"cafe_restaurant","name":"China Bar","osmUrl":"https://www.openstreetmap.org/node/4286790192"},"geometry":{"type":"Point","coordinates":[130.8419974,-12.4632054]}},{"type":"Feature","properties":{"pinType":"cafe_restaurant","name":"Golden Orchid","osmUrl":"https://www.openstreetmap.org/node/4639391689"},"geometry":{"type":"Point","coordinates":[130.8219384,-12.4511925]}},{"type":"Feature","properties":{"pinType":"cafe_restaurant","name":"Domino's","osmUrl":"https://www.openstreetmap.org/node/4641174708"},"geometry":{"type":"Point","coordinates":[130.8356506,-12.4570427]}},{"type":"Feature","properties":{"pinType":"cafe_restaurant","name":"Yots Greek Taverna","osmUrl":"https://www.openstreetmap.org/node/4643660389"},"geometry":{"type":"Point","coordinates":[130.8223537,-12.4509394]}},{"type":"Feature","properties":{"pinType":"cafe_restaurant","name":"Subway","url":"https://www.subway.com/en-AU/FindAStore?zip=Darwin","osmUrl":"https://www.openstreetmap.org/node/4704477992"},"geometry":{"type":"Point","coordinates":[130.8413365,-12.4634201]}},{"type":"Feature","properties":{"pinType":"cafe_restaurant","name":"McDonald's","osmUrl":"https://www.openstreetmap.org/node/4705993690"},"geometry":{"type":"Point","coordinates":[130.8413922,-12.463019]}},{"type":"Feature","properties":{"pinType":"cafe_restaurant","name":"Hungry Jack's","osmUrl":"https://www.openstreetmap.org/node/4707949956"},"geometry":{"type":"Point","coordinates":[130.8362491,-12.458371]}},{"type":"Feature","properties":{"pinType":"supermarket","name":"Blackwoods","osmUrl":"https://www.openstreetmap.org/node/4758910022"},"geometry":{"type":"Point","coordinates":[130.872578,-12.4299279]}},{"type":"Feature","properties":{"pinType":"cafe_restaurant","name":"Mayberry","url":"https://mayberrydarwin.com/","osmUrl":"https://www.openstreetmap.org/node/4769361222"},"geometry":{"type":"Point","coordinates":[130.8412001,-12.4618748]}},{"type":"Feature","properties":{"pinType":"cafe_restaurant","name":"Tim's Surf and Turf","osmUrl":"https://www.openstreetmap.org/node/4787722640"},"geometry":{"type":"Point","coordinates":[130.8441907,-12.4623503]}},{"type":"Feature","properties":{"pinType":"cafe_restaurant","name":"Cafe 21 Smith","url":"https://www.cafe21.com.au/index.php?route=information/information&information_id=8","osmUrl":"https://www.openstreetmap.org/node/4959162299"},"geometry":{"type":"Point","coordinates":[130.8355439,-12.4574764]}},{"type":"Feature","properties":{"pinType":"cafe_restaurant","name":"Kopi Stop","osmUrl":"https://www.openstreetmap.org/node/4959816482"},"geometry":{"type":"Point","coordinates":[130.8359701,-12.4567297]}},{"type":"Feature","properties":{"pinType":"cafe_restaurant","name":"Char Restaurant","osmUrl":"https://www.openstreetmap.org/node/4959816491"},"geometry":{"type":"Point","coordinates":[130.8400948,-12.4649173]}},{"type":"Feature","properties":{"pinType":"cafe_restaurant","name":"Frying Nemo","osmUrl":"https://www.openstreetmap.org/node/4984665221"},"geometry":{"type":"Point","coordinates":[130.8499225,-12.4483972]}},{"type":"Feature","properties":{"pinType":"cafe_restaurant","name":"Cafe De La Plage","osmUrl":"https://www.openstreetmap.org/node/4986309205"},"geometry":{"type":"Point","coordinates":[130.8679641,-12.3610951]}},{"type":"Feature","properties":{"pinType":"gym_leisure","name":"David's Studio","osmUrl":"https://www.openstreetmap.org/node/5033332723"},"geometry":{"type":"Point","coordinates":[130.8519755,-12.4005055]}},{"type":"Feature","properties":{"pinType":"cafe_restaurant","name":"Howard Springs Tavern","osmUrl":"https://www.openstreetmap.org/node/5055207621"},"geometry":{"type":"Point","coordinates":[131.043459,-12.4967032]}},{"type":"Feature","properties":{"pinType":"cafe_restaurant","name":"Exotic North Indian Cuisine","osmUrl":"https://www.openstreetmap.org/node/5140577322"},"geometry":{"type":"Point","coordinates":[130.8227403,-12.4508676]}},{"type":"Feature","properties":{"pinType":"cafe_restaurant","name":"Crust","osmUrl":"https://www.openstreetmap.org/node/5294887212"},"geometry":{"type":"Point","coordinates":[130.8436542,-12.4317397]}},{"type":"Feature","properties":{"pinType":"cafe_restaurant","name":"Happy Garden","osmUrl":"https://www.openstreetmap.org/node/5294887213"},"geometry":{"type":"Point","coordinates":[130.8440788,-12.4316191]}},{"type":"Feature","properties":{"pinType":"cafe_restaurant","name":"Canteen","osmUrl":"https://www.openstreetmap.org/node/5300332781"},"geometry":{"type":"Point","coordinates":[130.9727635,-12.4954257]}},{"type":"Feature","properties":{"pinType":"gym_leisure","name":"Gymnasium","osmUrl":"https://www.openstreetmap.org/node/5300332782"},"geometry":{"type":"Point","coordinates":[130.9730556,-12.4954086]}},{"type":"Feature","properties":{"pinType":"cafe_restaurant","name":"Seafood on Cullen","osmUrl":"https://www.openstreetmap.org/node/5318125021"},"geometry":{"type":"Point","coordinates":[130.8227361,-12.4502495]}},{"type":"Feature","properties":{"pinType":"supermarket","name":"Caltex","osmUrl":"https://www.openstreetmap.org/node/5318293740"},"geometry":{"type":"Point","coordinates":[130.9702076,-12.4800855]}},{"type":"Feature","properties":{"pinType":"supermarket","name":"Woodroffe Supermarket","osmUrl":"https://www.openstreetmap.org/node/5326762821"},"geometry":{"type":"Point","coordinates":[130.9786211,-12.5008556]}},{"type":"Feature","properties":{"pinType":"cafe_restaurant","name":"Hungry Dolphin","osmUrl":"https://www.openstreetmap.org/node/5326762822"},"geometry":{"type":"Point","coordinates":[130.9788903,-12.5008621]}},{"type":"Feature","properties":{"pinType":"pharmacy","name":"Chemist Warehouse","osmUrl":"https://www.openstreetmap.org/node/5392238023"},"geometry":{"type":"Point","coordinates":[130.9225826,-12.4324303]}},{"type":"Feature","properties":{"pinType":"cafe_restaurant","name":"Domino's","url":"https://www.dominos.com.au/","osmUrl":"https://www.openstreetmap.org/node/5404976995"},"geometry":{"type":"Point","coordinates":[130.916082,-12.4010594]}},{"type":"Feature","properties":{"pinType":"cafe_restaurant","name":"Kebab Karama","osmUrl":"https://www.openstreetmap.org/node/5404976996"},"geometry":{"type":"Point","coordinates":[130.9157735,-12.4012637]}},{"type":"Feature","properties":{"pinType":"cafe_restaurant","name":"Chianti","osmUrl":"https://www.openstreetmap.org/node/5441578723"},"geometry":{"type":"Point","coordinates":[131.0416161,-12.5238032]}},{"type":"Feature","properties":{"pinType":"cafe_restaurant","name":"Domino's","osmUrl":"https://www.openstreetmap.org/node/5441578730"},"geometry":{"type":"Point","coordinates":[131.042528,-12.5244735]}},{"type":"Feature","properties":{"pinType":"pharmacy","name":"Better Health","osmUrl":"https://www.openstreetmap.org/node/5441578735"},"geometry":{"type":"Point","coordinates":[131.0426581,-12.5251033]}},{"type":"Feature","properties":{"pinType":"cafe_restaurant","name":"Coffee Cafe","osmUrl":"https://www.openstreetmap.org/node/5441578738"},"geometry":{"type":"Point","coordinates":[131.0429411,-12.5252865]}},{"type":"Feature","properties":{"pinType":"pharmacy","name":"Herbal Healing","osmUrl":"https://www.openstreetmap.org/node/5441578741"},"geometry":{"type":"Point","coordinates":[131.0432214,-12.5232049]}},{"type":"Feature","properties":{"pinType":"cafe_restaurant","name":"Coolalinga Seafood","osmUrl":"https://www.openstreetmap.org/node/5441578747"},"geometry":{"type":"Point","coordinates":[131.043039,-12.5230426]}},{"type":"Feature","properties":{"pinType":"supermarket","name":"Coles","osmUrl":"https://www.openstreetmap.org/node/5441578754"},"geometry":{"type":"Point","coordinates":[131.0415168,-12.5206589]}},{"type":"Feature","properties":{"pinType":"pharmacy","name":"TerryWhite Chemmart","osmUrl":"https://www.openstreetmap.org/node/5468457982"},"geometry":{"type":"Point","coordinates":[131.0090353,-12.5060198]}},{"type":"Feature","properties":{"pinType":"cafe_restaurant","name":"Rainmaker Cafe","osmUrl":"https://www.openstreetmap.org/node/5468457984"},"geometry":{"type":"Point","coordinates":[131.0090795,-12.5062136]}},{"type":"Feature","properties":{"pinType":"cafe_restaurant","name":"Fresh Point Co.","url":"https://www.freshpointco.com/parap","osmUrl":"https://www.openstreetmap.org/node/5479235985"},"geometry":{"type":"Point","coordinates":[130.8394647,-12.440474]}},{"type":"Feature","properties":{"pinType":"cafe_restaurant","name":"Ichi","osmUrl":"https://www.openstreetmap.org/node/5535416618"},"geometry":{"type":"Point","coordinates":[130.8422611,-12.4629631]}},{"type":"Feature","properties":{"pinType":"cafe_restaurant","name":"Mad Hatters Café","osmUrl":"https://www.openstreetmap.org/node/5566691021"},"geometry":{"type":"Point","coordinates":[130.9579341,-12.474328]}},{"type":"Feature","properties":{"pinType":"cafe_restaurant","name":"Karma Café","osmUrl":"https://www.openstreetmap.org/node/5568679559"},"geometry":{"type":"Point","coordinates":[130.8396114,-12.4398774]}},{"type":"Feature","properties":{"pinType":"gym_leisure","name":"Snap Fitness","url":"https://www.snapfitness.com/au/gyms/parap","osmUrl":"https://www.openstreetmap.org/node/5573191921"},"geometry":{"type":"Point","coordinates":[130.8401363,-12.4397622]}},{"type":"Feature","properties":{"pinType":"cafe_restaurant","name":"MM’s Takeaway","osmUrl":"https://www.openstreetmap.org/node/5573192221"},"geometry":{"type":"Point","coordinates":[130.8398941,-12.4389263]}},{"type":"Feature","properties":{"pinType":"cafe_restaurant","name":"Aboriginal Bush Traders","url":"https://aboriginalbushtraders.com/","osmUrl":"https://www.openstreetmap.org/node/5623298221"},"geometry":{"type":"Point","coordinates":[130.8428893,-12.4650961]}},{"type":"Feature","properties":{"pinType":"supermarket","name":"Woolworths","url":"https://www.woolworths.com.au/","osmUrl":"https://www.openstreetmap.org/node/5631758469"},"geometry":{"type":"Point","coordinates":[130.9844189,-12.4705924]}},{"type":"Feature","properties":{"pinType":"cafe_restaurant","name":"Riva","osmUrl":"https://www.openstreetmap.org/node/5631819061"},"geometry":{"type":"Point","coordinates":[130.9793177,-12.5134067]}},{"type":"Feature","properties":{"pinType":"cafe_restaurant","name":"Fresh Point","osmUrl":"https://www.openstreetmap.org/node/5631819064"},"geometry":{"type":"Point","coordinates":[130.9794103,-12.5128293]}},{"type":"Feature","properties":{"pinType":"gym_leisure","name":"Darwin Crossfit","osmUrl":"https://www.openstreetmap.org/node/5660874229"},"geometry":{"type":"Point","coordinates":[130.8388992,-12.4532913]}},{"type":"Feature","properties":{"pinType":"supermarket","name":"Coles","osmUrl":"https://www.openstreetmap.org/node/5704087569"},"geometry":{"type":"Point","coordinates":[130.8821187,-12.371392]}},{"type":"Feature","properties":{"pinType":"cafe_restaurant","name":"Jilvie's Bistro","osmUrl":"https://www.openstreetmap.org/node/5720362543"},"geometry":{"type":"Point","coordinates":[130.9156072,-12.4013842]}},{"type":"Feature","properties":{"pinType":"cafe_restaurant","name":"Panda Food Centre","url":"https://www.karamashoppingplaza.com.au/business-directory/panda-food-centre/","osmUrl":"https://www.openstreetmap.org/node/5720362544"},"geometry":{"type":"Point","coordinates":[130.9159827,-12.4011301]}},{"type":"Feature","properties":{"pinType":"pharmacy","name":"Amcal","osmUrl":"https://www.openstreetmap.org/node/5720362548"},"geometry":{"type":"Point","coordinates":[130.9157225,-12.4007503]}},{"type":"Feature","properties":{"pinType":"cafe_restaurant","name":"Fusion Cafe","osmUrl":"https://www.openstreetmap.org/node/5720541554"},"geometry":{"type":"Point","coordinates":[130.8584909,-12.3918133]}},{"type":"Feature","properties":{"pinType":"cafe_restaurant","name":"Mt. 8848 Cafe and Restaurant","url":"https://mt8848cafe.com","osmUrl":"https://www.openstreetmap.org/node/5720541561"},"geometry":{"type":"Point","coordinates":[130.8574153,-12.3914033]}},{"type":"Feature","properties":{"pinType":"cafe_restaurant","name":"The Coffee Club","url":"https://www.coffeeclub.com.au/","osmUrl":"https://www.openstreetmap.org/node/5742355123"},"geometry":{"type":"Point","coordinates":[130.846334,-12.4670209]}},{"type":"Feature","properties":{"pinType":"cafe_restaurant","name":"Café Twenty One","url":"https://www.cafe21.com.au/","osmUrl":"https://www.openstreetmap.org/node/5742771761"},"geometry":{"type":"Point","coordinates":[130.8431412,-12.4643302]}},{"type":"Feature","properties":{"pinType":"cafe_restaurant","name":"Moorish Cafe","url":"https://www.moorishcafe.com.au/","osmUrl":"https://www.openstreetmap.org/node/5744907175"},"geometry":{"type":"Point","coordinates":[130.8423045,-12.4621411]}},{"type":"Feature","properties":{"pinType":"cafe_restaurant","name":"Ruby G's Cafe and Bakery","osmUrl":"https://www.openstreetmap.org/node/5761097888"},"geometry":{"type":"Point","coordinates":[130.8524559,-12.3997823]}},{"type":"Feature","properties":{"pinType":"cafe_restaurant","name":"City Pizza","url":"https://www.citypizza.com.au/","osmUrl":"https://www.openstreetmap.org/node/5923535896"},"geometry":{"type":"Point","coordinates":[130.8423947,-12.4620547]}},{"type":"Feature","properties":{"pinType":"cafe_restaurant","name":"Indian Curry Paradise","url":"http://www.indiancurryparadise.com","osmUrl":"https://www.openstreetmap.org/node/6052638215"},"geometry":{"type":"Point","coordinates":[130.8824083,-12.3716305]}},{"type":"Feature","properties":{"pinType":"cafe_restaurant","name":"Uncle Sam's","osmUrl":"https://www.openstreetmap.org/node/6176042771"},"geometry":{"type":"Point","coordinates":[130.8353951,-12.4573274]}},{"type":"Feature","properties":{"pinType":"cafe_restaurant","name":"Nando's","osmUrl":"https://www.openstreetmap.org/node/6267321162"},"geometry":{"type":"Point","coordinates":[130.9826233,-12.4716878]}},{"type":"Feature","properties":{"pinType":"cafe_restaurant","name":"Chatime","osmUrl":"https://www.openstreetmap.org/node/6267321163"},"geometry":{"type":"Point","coordinates":[130.9827309,-12.471702]}},{"type":"Feature","properties":{"pinType":"cafe_restaurant","name":"Origin Kebabs","osmUrl":"https://www.openstreetmap.org/node/6267321164"},"geometry":{"type":"Point","coordinates":[130.9827716,-12.4717901]}},{"type":"Feature","properties":{"pinType":"cafe_restaurant","name":"Saigon Time","osmUrl":"https://www.openstreetmap.org/node/6267321165"},"geometry":{"type":"Point","coordinates":[130.9829606,-12.4718837]}},{"type":"Feature","properties":{"pinType":"cafe_restaurant","name":"Subway","url":"https://www.subway.com.au/","osmUrl":"https://www.openstreetmap.org/node/6267321166"},"geometry":{"type":"Point","coordinates":[130.9831827,-12.4716659]}},{"type":"Feature","properties":{"pinType":"cafe_restaurant","name":"Happy Garden","osmUrl":"https://www.openstreetmap.org/node/6267321167"},"geometry":{"type":"Point","coordinates":[130.9832325,-12.4717978]}},{"type":"Feature","properties":{"pinType":"cafe_restaurant","name":"The Coffee Club","url":"https://www.coffeeclub.com.au/","osmUrl":"https://www.openstreetmap.org/node/6267321175"},"geometry":{"type":"Point","coordinates":[130.9827439,-12.4711649]}},{"type":"Feature","properties":{"pinType":"cafe_restaurant","name":"Gloria Jean's","osmUrl":"https://www.openstreetmap.org/node/6267321176"},"geometry":{"type":"Point","coordinates":[130.9828415,-12.471304]}},{"type":"Feature","properties":{"pinType":"cafe_restaurant","name":"Boost Juice","osmUrl":"https://www.openstreetmap.org/node/6267321292"},"geometry":{"type":"Point","coordinates":[130.983906,-12.4708278]}},{"type":"Feature","properties":{"pinType":"pharmacy","name":"Priceline Pharmacy","osmUrl":"https://www.openstreetmap.org/node/6267321294"},"geometry":{"type":"Point","coordinates":[130.9844979,-12.470782]}},{"type":"Feature","properties":{"pinType":"cafe_restaurant","name":"New Zealand Natural","osmUrl":"https://www.openstreetmap.org/node/6267321305"},"geometry":{"type":"Point","coordinates":[130.9829154,-12.4715844]}},{"type":"Feature","properties":{"pinType":"pharmacy","name":"TerryWhite Chemmart","osmUrl":"https://www.openstreetmap.org/node/6267321310"},"geometry":{"type":"Point","coordinates":[130.9834282,-12.4708945]}},{"type":"Feature","properties":{"pinType":"supermarket","name":"Coles","url":"https://www.coles.com.au/find-stores/coles/nt/palmerston-219","osmUrl":"https://www.openstreetmap.org/node/6267324359"},"geometry":{"type":"Point","coordinates":[130.9854249,-12.4838279]}},{"type":"Feature","properties":{"pinType":"cafe_restaurant","name":"Good Thanks","url":"https://www.goodthanksdarwin.com/","osmUrl":"https://www.openstreetmap.org/node/6444935585"},"geometry":{"type":"Point","coordinates":[130.8422086,-12.4622749]}},{"type":"Feature","properties":{"pinType":"gym_leisure","name":"Yoga Territory","osmUrl":"https://www.openstreetmap.org/node/6722812085"},"geometry":{"type":"Point","coordinates":[130.8426721,-12.4623607]}},{"type":"Feature","properties":{"pinType":"cafe_restaurant","name":"Little Miss Korea","osmUrl":"https://www.openstreetmap.org/node/7079569986"},"geometry":{"type":"Point","coordinates":[130.8416285,-12.4622633]}},{"type":"Feature","properties":{"pinType":"cafe_restaurant","name":"Mad Snake","osmUrl":"https://www.openstreetmap.org/node/7081158586"},"geometry":{"type":"Point","coordinates":[130.8416055,-12.4618269]}},{"type":"Feature","properties":{"pinType":"cafe_restaurant","name":"Lucky Bat cafe and pizzeria","url":"http://luckybat.space/","osmUrl":"https://www.openstreetmap.org/node/7340294294"},"geometry":{"type":"Point","coordinates":[130.8506046,-12.386966]}},{"type":"Feature","properties":{"pinType":"cafe_restaurant","name":"Laneway specialty coffee","url":"https://www.lanewaycoffee.com.au/","osmUrl":"https://www.openstreetmap.org/node/7387787138"},"geometry":{"type":"Point","coordinates":[130.844701,-12.4319245]}},{"type":"Feature","properties":{"pinType":"cafe_restaurant","name":"The Track","osmUrl":"https://www.openstreetmap.org/node/7676197657"},"geometry":{"type":"Point","coordinates":[130.8434738,-12.423007]}},{"type":"Feature","properties":{"pinType":"pharmacy","name":"Chemist Warehouse","osmUrl":"https://www.openstreetmap.org/node/7852009071"},"geometry":{"type":"Point","coordinates":[130.855703,-12.4096136]}},{"type":"Feature","properties":{"pinType":"cafe_restaurant","name":"Yams Foodhouse","osmUrl":"https://www.openstreetmap.org/node/7874019770"},"geometry":{"type":"Point","coordinates":[131.0088776,-12.5066666]}},{"type":"Feature","properties":{"pinType":"supermarket","name":"IGA","osmUrl":"https://www.openstreetmap.org/node/7903667415"},"geometry":{"type":"Point","coordinates":[131.014367,-12.7028205]}},{"type":"Feature","properties":{"pinType":"cafe_restaurant","name":"Yogis Way","osmUrl":"https://www.openstreetmap.org/node/8442099986"},"geometry":{"type":"Point","coordinates":[130.8425692,-12.445271]}},{"type":"Feature","properties":{"pinType":"pharmacy","name":"Chemist Warehouse","url":"https://chemistwarehouse.com.au/","osmUrl":"https://www.openstreetmap.org/node/8733139846"},"geometry":{"type":"Point","coordinates":[131.0409829,-12.5208854]}},{"type":"Feature","properties":{"pinType":"cafe_restaurant","name":"The Rabbit Hole","osmUrl":"https://www.openstreetmap.org/node/9553841165"},"geometry":{"type":"Point","coordinates":[130.8420973,-12.4631496]}},{"type":"Feature","properties":{"pinType":"cafe_restaurant","name":"Boat House","osmUrl":"https://www.openstreetmap.org/node/10145653617"},"geometry":{"type":"Point","coordinates":[130.8225457,-12.4509106]}},{"type":"Feature","properties":{"pinType":"cafe_restaurant","name":"Mellow Thai","url":"https://mellowthai.com.au","osmUrl":"https://www.openstreetmap.org/node/10813076601"},"geometry":{"type":"Point","coordinates":[130.8392303,-12.4627718]}},{"type":"Feature","properties":{"pinType":"cafe_restaurant","name":"Alfonsino‘s","url":"https://alfonsinos.com/","osmUrl":"https://www.openstreetmap.org/node/10813150269"},"geometry":{"type":"Point","coordinates":[130.8392889,-12.4630157]}},{"type":"Feature","properties":{"pinType":"cafe_restaurant","name":"Pokelicious","osmUrl":"https://www.openstreetmap.org/node/10958632095"},"geometry":{"type":"Point","coordinates":[130.8426431,-12.4643252]}},{"type":"Feature","properties":{"pinType":"cafe_restaurant","name":"Curry14","osmUrl":"https://www.openstreetmap.org/node/10958687027"},"geometry":{"type":"Point","coordinates":[130.8425648,-12.4643117]}},{"type":"Feature","properties":{"pinType":"cafe_restaurant","name":"Fruillati","osmUrl":"https://www.openstreetmap.org/node/10958836833"},"geometry":{"type":"Point","coordinates":[130.8423883,-12.4644685]}},{"type":"Feature","properties":{"pinType":"cafe_restaurant","name":"Spice Garden Eating House & Grill","osmUrl":"https://www.openstreetmap.org/node/10959254159"},"geometry":{"type":"Point","coordinates":[130.8513276,-12.3869292]}},{"type":"Feature","properties":{"pinType":"cafe_restaurant","name":"Medee Eatery","osmUrl":"https://www.openstreetmap.org/node/10961240774"},"geometry":{"type":"Point","coordinates":[130.8366545,-12.4234262]}},{"type":"Feature","properties":{"pinType":"cafe_restaurant","name":"Fannie Bay Super Pizza Italian Restaurant","osmUrl":"https://www.openstreetmap.org/node/10961260543"},"geometry":{"type":"Point","coordinates":[130.8365323,-12.4240376]}},{"type":"Feature","properties":{"pinType":"supermarket","name":"Winnellie Supermarket","osmUrl":"https://www.openstreetmap.org/node/11129214223"},"geometry":{"type":"Point","coordinates":[130.8633761,-12.4255397]}},{"type":"Feature","properties":{"pinType":"cafe_restaurant","name":"Lantern Chinese Restaurant","osmUrl":"https://www.openstreetmap.org/node/11270671023"},"geometry":{"type":"Point","coordinates":[130.9838645,-12.4788499]}},{"type":"Feature","properties":{"pinType":"cafe_restaurant","name":"Hungry Jack's","url":"https://www.hungryjacks.com.au/find-us/palmerston","osmUrl":"https://www.openstreetmap.org/node/11270694782"},"geometry":{"type":"Point","coordinates":[130.9877668,-12.4804847]}},{"type":"Feature","properties":{"pinType":"cafe_restaurant","name":"K-Tong Chinese Restaurant","osmUrl":"https://www.openstreetmap.org/node/11270699176"},"geometry":{"type":"Point","coordinates":[130.9836307,-12.4777287]}},{"type":"Feature","properties":{"pinType":"cafe_restaurant","name":"KFC","osmUrl":"https://www.openstreetmap.org/node/11270699204"},"geometry":{"type":"Point","coordinates":[130.9874155,-12.4807328]}},{"type":"Feature","properties":{"pinType":"cafe_restaurant","name":"Covai Cafe","osmUrl":"https://www.openstreetmap.org/node/11270701770"},"geometry":{"type":"Point","coordinates":[130.9842025,-12.480389]}},{"type":"Feature","properties":{"pinType":"park","name":"Goyder Square","osmUrl":"https://www.openstreetmap.org/node/11270703628"},"geometry":{"type":"Point","coordinates":[130.9845017,-12.4798955]}},{"type":"Feature","properties":{"pinType":"cafe_restaurant","name":"The Nook On Boulevard","osmUrl":"https://www.openstreetmap.org/node/11270709570"},"geometry":{"type":"Point","coordinates":[130.9847855,-12.4795575]}},{"type":"Feature","properties":{"pinType":"cafe_restaurant","name":"Saltwater @ Bundilla","url":"https://saltwaterb.com.au/","osmUrl":"https://www.openstreetmap.org/node/11276273062"},"geometry":{"type":"Point","coordinates":[130.8330557,-12.4372308]}},{"type":"Feature","properties":{"pinType":"cafe_restaurant","name":"Siam Gateway","osmUrl":"https://www.openstreetmap.org/node/11655763341"},"geometry":{"type":"Point","coordinates":[130.8519448,-12.3801077]}},{"type":"Feature","properties":{"pinType":"cafe_restaurant","name":"Poke Ola","osmUrl":"https://www.openstreetmap.org/node/11895954869"},"geometry":{"type":"Point","coordinates":[130.8413836,-12.4630054]}},{"type":"Feature","properties":{"pinType":"pharmacy","name":"Chemist Warehouse","url":"https://www.chemistwarehouse.com.au/","osmUrl":"https://www.openstreetmap.org/node/11895994369"},"geometry":{"type":"Point","coordinates":[130.8416269,-12.4608319]}},{"type":"Feature","properties":{"pinType":"cafe_restaurant","name":"Alberto's","osmUrl":"https://www.openstreetmap.org/node/11896004570"},"geometry":{"type":"Point","coordinates":[130.8419583,-12.461172]}},{"type":"Feature","properties":{"pinType":"cafe_restaurant","name":"Palmerston Golf and Country Club","osmUrl":"https://www.openstreetmap.org/node/11905837869"},"geometry":{"type":"Point","coordinates":[130.9762862,-12.4814025]}},{"type":"Feature","properties":{"pinType":"cafe_restaurant","name":"Ming Court","osmUrl":"https://www.openstreetmap.org/node/11911390220"},"geometry":{"type":"Point","coordinates":[130.8754356,-12.389287]}},{"type":"Feature","properties":{"pinType":"pharmacy","name":"Chemist Warehouse","url":"https://www.chemistwarehouse.com.au/","osmUrl":"https://www.openstreetmap.org/node/11934024463"},"geometry":{"type":"Point","coordinates":[130.8796817,-12.3758125]}},{"type":"Feature","properties":{"pinType":"cafe_restaurant","name":"Emilio’s Cafe","url":"https://www.emilioscafe.com.au/","osmUrl":"https://www.openstreetmap.org/node/12008133793"},"geometry":{"type":"Point","coordinates":[130.9163519,-12.4300319]}},{"type":"Feature","properties":{"pinType":"pharmacy","name":"Chemist Warehouse","url":"https://chemistwarehouse.com.au/","osmUrl":"https://www.openstreetmap.org/node/12128671549"},"geometry":{"type":"Point","coordinates":[130.9707031,-12.4802046]}},{"type":"Feature","properties":{"pinType":"pharmacy","name":"Chemist Warehouse","osmUrl":"https://www.openstreetmap.org/node/12128698497"},"geometry":{"type":"Point","coordinates":[130.9801405,-12.4693257]}},{"type":"Feature","properties":{"pinType":"pharmacy","name":"Chemist Warehouse Norhlakes Marrara","url":"https://chemistwarehouse.com.au/","osmUrl":"https://www.openstreetmap.org/node/12248100818"},"geometry":{"type":"Point","coordinates":[130.8954209,-12.3957687]}},{"type":"Feature","properties":{"pinType":"supermarket","name":"NaM Variety Outlet","osmUrl":"https://www.openstreetmap.org/node/12254077751"},"geometry":{"type":"Point","coordinates":[130.9855824,-12.4804694]}},{"type":"Feature","properties":{"pinType":"cafe_restaurant","name":"Splash Cafe and Pool","osmUrl":"https://www.openstreetmap.org/node/12587827290"},"geometry":{"type":"Point","coordinates":[130.8800542,-12.4058004]}},{"type":"Feature","properties":{"pinType":"cafe_restaurant","name":"Passengers Cafe","osmUrl":"https://www.openstreetmap.org/node/12608531707"},"geometry":{"type":"Point","coordinates":[130.8405799,-12.4607079]}},{"type":"Feature","properties":{"pinType":"pharmacy","name":"Blooms","osmUrl":"https://www.openstreetmap.org/node/12608563677"},"geometry":{"type":"Point","coordinates":[130.8403856,-12.4608522]}},{"type":"Feature","properties":{"pinType":"cafe_restaurant","name":"cafe restaurant","osmUrl":"https://www.openstreetmap.org/node/12608619288"},"geometry":{"type":"Point","coordinates":[131.0142611,-12.7026199]}},{"type":"Feature","properties":{"pinType":"cafe_restaurant","name":"Kim's Fish n Chips","osmUrl":"https://www.openstreetmap.org/node/12609342434"},"geometry":{"type":"Point","coordinates":[130.8483789,-12.4708809]}},{"type":"Feature","properties":{"pinType":"cafe_restaurant","name":"Red Dragon","osmUrl":"https://www.openstreetmap.org/node/12609362085"},"geometry":{"type":"Point","coordinates":[130.8482572,-12.4709333]}},{"type":"Feature","properties":{"pinType":"cafe_restaurant","name":"cafe restaurant","osmUrl":"https://www.openstreetmap.org/node/12609367905"},"geometry":{"type":"Point","coordinates":[130.8482725,-12.4707079]}},{"type":"Feature","properties":{"pinType":"cafe_restaurant","name":"Crustaceans","osmUrl":"https://www.openstreetmap.org/node/12609371421"},"geometry":{"type":"Point","coordinates":[130.8481437,-12.4708794]}},{"type":"Feature","properties":{"pinType":"cafe_restaurant","name":"Red Rooster","osmUrl":"https://www.openstreetmap.org/node/12611275197"},"geometry":{"type":"Point","coordinates":[130.8773848,-12.4083504]}},{"type":"Feature","properties":{"pinType":"cafe_restaurant","name":"The Territory Bar & Café","osmUrl":"https://www.openstreetmap.org/node/12611279127"},"geometry":{"type":"Point","coordinates":[130.8770254,-12.4082344]}},{"type":"Feature","properties":{"pinType":"cafe_restaurant","name":"Northern Common","osmUrl":"https://www.openstreetmap.org/node/12611283166"},"geometry":{"type":"Point","coordinates":[130.8778089,-12.4084972]}},{"type":"Feature","properties":{"pinType":"cafe_restaurant","name":"Roll'd","osmUrl":"https://www.openstreetmap.org/node/12611322193"},"geometry":{"type":"Point","coordinates":[130.8780935,-12.4085237]}},{"type":"Feature","properties":{"pinType":"pharmacy","name":"Hibiscus Day and Night Pharmacy","osmUrl":"https://www.openstreetmap.org/node/12650864401"},"geometry":{"type":"Point","coordinates":[130.8960819,-12.3776139]}},{"type":"Feature","properties":{"pinType":"cafe_restaurant","name":"Smokey J's","osmUrl":"https://www.openstreetmap.org/node/12712104565"},"geometry":{"type":"Point","coordinates":[131.0407737,-12.5207764]}},{"type":"Feature","properties":{"pinType":"park","name":"Yanyula Park","url":"https://www.darwin.nt.gov.au/community/community-facilities/yanyula-park-incl-anula-regional-playground-anula-oval-anula","osmUrl":"https://www.openstreetmap.org/node/12960262673"},"geometry":{"type":"Point","coordinates":[130.8910489,-12.3908266]}},{"type":"Feature","properties":{"pinType":"supermarket","name":"LaGrocers - Your Local Grocers","osmUrl":"https://www.openstreetmap.org/node/13009123316"},"geometry":{"type":"Point","coordinates":[131.0062672,-12.4913407]}},{"type":"Feature","properties":{"pinType":"park","name":"Jabiru Park","url":"https://www.darwin.nt.gov.au/community/community-facilities/jabiru-park","osmUrl":"https://www.openstreetmap.org/node/13018394422"},"geometry":{"type":"Point","coordinates":[130.8928839,-12.380536]}},{"type":"Feature","properties":{"pinType":"park","name":"Plover Park","url":"https://www.darwin.nt.gov.au/community/community-facilities/plover-park","osmUrl":"https://www.openstreetmap.org/node/13018394423"},"geometry":{"type":"Point","coordinates":[130.8930511,-12.3800243]}},{"type":"Feature","properties":{"pinType":"park","name":"Curlew Park","url":"https://www.darwin.nt.gov.au/community/community-facilities/curlew-park","osmUrl":"https://www.openstreetmap.org/node/13018394424"},"geometry":{"type":"Point","coordinates":[130.8934442,-12.3792394]}},{"type":"Feature","properties":{"pinType":"cafe_restaurant","name":"Thai Thai","osmUrl":"https://www.openstreetmap.org/node/13022421601"},"geometry":{"type":"Point","coordinates":[130.8835474,-12.3743036]}},{"type":"Feature","properties":{"pinType":"cafe_restaurant","name":"Golden Star Kitchen","osmUrl":"https://www.openstreetmap.org/node/13075895126"},"geometry":{"type":"Point","coordinates":[130.8866371,-12.3805688]}},{"type":"Feature","properties":{"pinType":"cafe_restaurant","name":"Ballantynes Fish & Chips","osmUrl":"https://www.openstreetmap.org/node/13176381360"},"geometry":{"type":"Point","coordinates":[130.9929997,-12.5027505]}},{"type":"Feature","properties":{"pinType":"cafe_restaurant","name":"Subway","osmUrl":"https://www.openstreetmap.org/node/13186849801"},"geometry":{"type":"Point","coordinates":[130.8957599,-12.396074]}},{"type":"Feature","properties":{"pinType":"cafe_restaurant","name":"Le Petit Chef","url":"https://lepetitchef.com/","osmUrl":"https://www.openstreetmap.org/node/13190282001"},"geometry":{"type":"Point","coordinates":[130.8416147,-12.4643458]}},{"type":"Feature","properties":{"pinType":"cafe_restaurant","name":"il Piatto Restaurant","url":"http://mindilbeachcasinoresort.com","osmUrl":"https://www.openstreetmap.org/node/13190282002"},"geometry":{"type":"Point","coordinates":[130.8298344,-12.4479327]}},{"type":"Feature","properties":{"pinType":"cafe_restaurant","name":"Charlie's NT Cafe & Bar","osmUrl":"https://www.openstreetmap.org/node/13242234728"},"geometry":{"type":"Point","coordinates":[130.8773623,-12.4079031]}},{"type":"Feature","properties":{"pinType":"cafe_restaurant","name":"Treetops Restaurant","osmUrl":"https://www.openstreetmap.org/node/13269970375"},"geometry":{"type":"Point","coordinates":[130.8412229,-12.4590112]}},{"type":"Feature","properties":{"pinType":"gym_leisure","name":"gym leisure","osmUrl":"https://www.openstreetmap.org/node/13269970381"},"geometry":{"type":"Point","coordinates":[130.8411285,-12.45926]}},{"type":"Feature","properties":{"pinType":"supermarket","name":"Woolworths","osmUrl":"https://www.openstreetmap.org/node/13314170050"},"geometry":{"type":"Point","coordinates":[130.9865622,-12.4985972]}},{"type":"Feature","properties":{"pinType":"cafe_restaurant","name":"EC Eats","url":"https://www.bakewellshoppingcentre.com.au/store/ec-eats","osmUrl":"https://www.openstreetmap.org/node/13314170052"},"geometry":{"type":"Point","coordinates":[130.986415,-12.4989754]}},{"type":"Feature","properties":{"pinType":"cafe_restaurant","name":"Subway","url":"https://www.subway.com/en-au","osmUrl":"https://www.openstreetmap.org/node/13314170053"},"geometry":{"type":"Point","coordinates":[130.9864746,-12.4989862]}},{"type":"Feature","properties":{"pinType":"cafe_restaurant","name":"Supero Pizza and Kebab","url":"https://superopizza.com.au/","osmUrl":"https://www.openstreetmap.org/node/13314170055"},"geometry":{"type":"Point","coordinates":[130.9868623,-12.4990727]}},{"type":"Feature","properties":{"pinType":"pharmacy","name":"Blooms The Chemist","url":"https://www.bloomsthechemist.com.au/","osmUrl":"https://www.openstreetmap.org/node/13314170057"},"geometry":{"type":"Point","coordinates":[130.9870585,-12.4991092]}},{"type":"Feature","properties":{"pinType":"cafe_restaurant","name":"Lunch Heaven","osmUrl":"https://www.openstreetmap.org/node/13319143793"},"geometry":{"type":"Point","coordinates":[130.8639455,-12.4305988]}},{"type":"Feature","properties":{"pinType":"cafe_restaurant","name":"Mad About Coffee","osmUrl":"https://www.openstreetmap.org/node/13327435890"},"geometry":{"type":"Point","coordinates":[130.8440838,-12.4310696]}},{"type":"Feature","properties":{"pinType":"cafe_restaurant","name":"Saffrron","osmUrl":"https://www.openstreetmap.org/node/13327435901"},"geometry":{"type":"Point","coordinates":[130.8438455,-12.4320058]}},{"type":"Feature","properties":{"pinType":"park","name":"Bariquit Square","osmUrl":"https://www.openstreetmap.org/node/13338433536"},"geometry":{"type":"Point","coordinates":[130.8266616,-12.4492117]}},{"type":"Feature","properties":{"pinType":"park","name":"Myilly Point Park","osmUrl":"https://www.openstreetmap.org/node/13338433538"},"geometry":{"type":"Point","coordinates":[130.8246664,-12.449285]}},{"type":"Feature","properties":{"pinType":"park","name":"Fannie Bay Cliffs","osmUrl":"https://www.openstreetmap.org/node/13339650848"},"geometry":{"type":"Point","coordinates":[130.835104,-12.425622]}},{"type":"Feature","properties":{"pinType":"park","name":"Adventure Play","osmUrl":"https://www.openstreetmap.org/node/13341780569"},"geometry":{"type":"Point","coordinates":[130.8297867,-12.4523647]}},{"type":"Feature","properties":{"pinType":"park","name":"Sensory Garden","osmUrl":"https://www.openstreetmap.org/node/13342076756"},"geometry":{"type":"Point","coordinates":[130.8368061,-12.445609]}},{"type":"Feature","properties":{"pinType":"park","name":"Food Garden","osmUrl":"https://www.openstreetmap.org/node/13342076757"},"geometry":{"type":"Point","coordinates":[130.837198,-12.4456293]}},{"type":"Feature","properties":{"pinType":"park","name":"Cycad Garden","osmUrl":"https://www.openstreetmap.org/node/13342076760"},"geometry":{"type":"Point","coordinates":[130.8379042,-12.4465509]}},{"type":"Feature","properties":{"pinType":"park","name":"Desert Rose","osmUrl":"https://www.openstreetmap.org/node/13342076774"},"geometry":{"type":"Point","coordinates":[130.837634,-12.4449314]}},{"type":"Feature","properties":{"pinType":"park","name":"Secret Moonlight Garden","osmUrl":"https://www.openstreetmap.org/node/13342076784"},"geometry":{"type":"Point","coordinates":[130.8373102,-12.4443257]}},{"type":"Feature","properties":{"pinType":"park","name":"Heritage Lawn","osmUrl":"https://www.openstreetmap.org/node/13342076785"},"geometry":{"type":"Point","coordinates":[130.8364398,-12.4435424]}},{"type":"Feature","properties":{"pinType":"park","name":"Borassus Lawn","osmUrl":"https://www.openstreetmap.org/node/13342076786"},"geometry":{"type":"Point","coordinates":[130.8362544,-12.4450721]}},{"type":"Feature","properties":{"pinType":"park","name":"Central Green","osmUrl":"https://www.openstreetmap.org/node/13342076787"},"geometry":{"type":"Point","coordinates":[130.8356924,-12.44559]}},{"type":"Feature","properties":{"pinType":"park","name":"Coconut Lawn","osmUrl":"https://www.openstreetmap.org/node/13342076788"},"geometry":{"type":"Point","coordinates":[130.8353331,-12.4458849]}},{"type":"Feature","properties":{"pinType":"park","name":"Waterfall","osmUrl":"https://www.openstreetmap.org/node/13342076854"},"geometry":{"type":"Point","coordinates":[130.8390642,-12.4447048]}},{"type":"Feature","properties":{"pinType":"park","name":"Rainforest Loop","osmUrl":"https://www.openstreetmap.org/node/13342076855"},"geometry":{"type":"Point","coordinates":[130.8376347,-12.4439148]}},{"type":"Feature","properties":{"pinType":"park","name":"Shade Garden","osmUrl":"https://www.openstreetmap.org/node/13342076886"},"geometry":{"type":"Point","coordinates":[130.8381274,-12.4429388]}},{"type":"Feature","properties":{"pinType":"park","name":"Boab Garden","osmUrl":"https://www.openstreetmap.org/node/13342076887"},"geometry":{"type":"Point","coordinates":[130.836891,-12.4426692]}},{"type":"Feature","properties":{"pinType":"park","name":"Woodland","osmUrl":"https://www.openstreetmap.org/node/13342076888"},"geometry":{"type":"Point","coordinates":[130.8363541,-12.4418495]}},{"type":"Feature","properties":{"pinType":"park","name":"Tiwi Wet Forest","osmUrl":"https://www.openstreetmap.org/node/13342076889"},"geometry":{"type":"Point","coordinates":[130.8385569,-12.4424258]}},{"type":"Feature","properties":{"pinType":"park","name":"Playground","osmUrl":"https://www.openstreetmap.org/node/13343698208"},"geometry":{"type":"Point","coordinates":[130.8366717,-12.4460489]}},{"type":"Feature","properties":{"pinType":"park","name":"Darwin Amphitheatre","osmUrl":"https://www.openstreetmap.org/node/13343698209"},"geometry":{"type":"Point","coordinates":[130.8365487,-12.4471347]}},{"type":"Feature","properties":{"pinType":"park","name":"Brownies Toadstool","osmUrl":"https://www.openstreetmap.org/node/13343698210"},"geometry":{"type":"Point","coordinates":[130.8351836,-12.4444904]}},{"type":"Feature","properties":{"pinType":"park","name":"Dragon Coutyard","osmUrl":"https://www.openstreetmap.org/node/13343957911"},"geometry":{"type":"Point","coordinates":[130.8380676,-12.4440289]}},{"type":"Feature","properties":{"pinType":"park","name":"Fannie Bay Foreshore","osmUrl":"https://www.openstreetmap.org/node/13349065896"},"geometry":{"type":"Point","coordinates":[130.8344866,-12.4241174]}},{"type":"Feature","properties":{"pinType":"park","name":"Gilruth Escarpment","osmUrl":"https://www.openstreetmap.org/node/13352771239"},"geometry":{"type":"Point","coordinates":[130.8312217,-12.452027]}},{"type":"Feature","properties":{"pinType":"cafe_restaurant","name":"Patty Shack Burger Bar","osmUrl":"https://www.openstreetmap.org/node/13359114501"},"geometry":{"type":"Point","coordinates":[130.8509286,-12.3876419]}},{"type":"Feature","properties":{"pinType":"park","name":"Mangrove Conservation Area","osmUrl":"https://www.openstreetmap.org/node/13380274502"},"geometry":{"type":"Point","coordinates":[130.8475645,-12.4405086]}},{"type":"Feature","properties":{"pinType":"park","name":"Doctors Gully","osmUrl":"https://www.openstreetmap.org/node/13390361342"},"geometry":{"type":"Point","coordinates":[130.8327909,-12.4584357]}},{"type":"Feature","properties":{"pinType":"cafe_restaurant","name":"Bustard Town","url":"https://bustardtown.com/","osmUrl":"https://www.openstreetmap.org/node/13390374346"},"geometry":{"type":"Point","coordinates":[130.8408988,-12.4635109]}},{"type":"Feature","properties":{"pinType":"cafe_restaurant","name":"DADA DI","osmUrl":"https://www.openstreetmap.org/node/13394657685"},"geometry":{"type":"Point","coordinates":[130.8366225,-12.4235146]}},{"type":"Feature","properties":{"pinType":"cafe_restaurant","name":"Fin & Tonic","url":"https://www.finandtonic.com.au/","osmUrl":"https://www.openstreetmap.org/node/13394701747"},"geometry":{"type":"Point","coordinates":[130.8226316,-12.4499982]}},{"type":"Feature","properties":{"pinType":"gym_leisure","name":"World Gym","osmUrl":"https://www.openstreetmap.org/node/13420391218"},"geometry":{"type":"Point","coordinates":[130.9853319,-12.4769701]}},{"type":"Feature","properties":{"pinType":"gym_leisure","name":"Next Level Gym","url":"http://nextlevelgym.com.au/","osmUrl":"https://www.openstreetmap.org/node/13437788740"},"geometry":{"type":"Point","coordinates":[130.9931772,-12.5028938]}},{"type":"Feature","properties":{"pinType":"gym_leisure","name":"East Point Aeromodellers Club","osmUrl":"https://www.openstreetmap.org/node/13457855803"},"geometry":{"type":"Point","coordinates":[130.8273625,-12.4091932]}},{"type":"Feature","properties":{"pinType":"park","name":"East Point Reserve","url":"https://www.darwin.nt.gov.au/community/community-facilities/east-point-reserve","osmUrl":"https://www.openstreetmap.org/node/13457915588"},"geometry":{"type":"Point","coordinates":[130.8254206,-12.4077106]}},{"type":"Feature","properties":{"pinType":"cafe_restaurant","name":"cafe restaurant","url":"https://www.darwin.nt.gov.au/community/things-to-do/street-food","osmUrl":"https://www.openstreetmap.org/node/13460927302"},"geometry":{"type":"Point","coordinates":[130.8297081,-12.4128282]}},{"type":"Feature","properties":{"pinType":"park","name":"Kite Corner","osmUrl":"https://www.openstreetmap.org/node/13508359023"},"geometry":{"type":"Point","coordinates":[130.8540747,-12.3741808]}},{"type":"Feature","properties":{"pinType":"cafe_restaurant","name":"LA Burgers & Shakes","osmUrl":"https://www.openstreetmap.org/node/13516584550"},"geometry":{"type":"Point","coordinates":[131.0062102,-12.4917871]}},{"type":"Feature","properties":{"pinType":"park","name":"Woodland Loop Walk","osmUrl":"https://www.openstreetmap.org/node/13535819481"},"geometry":{"type":"Point","coordinates":[130.8882166,-12.410688]}},{"type":"Feature","properties":{"pinType":"cafe_restaurant","name":"8/12th Regiment Coffee shop","osmUrl":"https://www.openstreetmap.org/node/13537080470"},"geometry":{"type":"Point","coordinates":[130.9779231,-12.4358594]}},{"type":"Feature","properties":{"pinType":"cafe_restaurant","name":"AAFCANS Cafe Central Canteen","osmUrl":"https://www.openstreetmap.org/node/13537080471"},"geometry":{"type":"Point","coordinates":[130.9762328,-12.4372107]}},{"type":"Feature","properties":{"pinType":"supermarket","name":"ADCU Robertson Barracks","osmUrl":"https://www.openstreetmap.org/node/13537080473"},"geometry":{"type":"Point","coordinates":[130.9761603,-12.437384]}},{"type":"Feature","properties":{"pinType":"gym_leisure","name":"Gecko Climb","osmUrl":"https://www.openstreetmap.org/node/13588503772"},"geometry":{"type":"Point","coordinates":[130.8568256,-12.4303626]}},{"type":"Feature","properties":{"pinType":"gym_leisure","name":"Soldier Recovery Center","osmUrl":"https://www.openstreetmap.org/node/13608930856"},"geometry":{"type":"Point","coordinates":[130.9753635,-12.4439513]}},{"type":"Feature","properties":{"pinType":"cafe_restaurant","name":"Subway","osmUrl":"https://www.openstreetmap.org/node/13673002401"},"geometry":{"type":"Point","coordinates":[130.8482915,-12.4325434]}},{"type":"Feature","properties":{"pinType":"cafe_restaurant","name":"Bruce's Charcoal Chicken & Chinese Takeaway","osmUrl":"https://www.openstreetmap.org/node/13691308189"},"geometry":{"type":"Point","coordinates":[130.8509255,-12.3875643]}},{"type":"Feature","properties":{"pinType":"pharmacy","name":"Territory Pharmacy Stuart Park","osmUrl":"https://www.openstreetmap.org/node/13697627743"},"geometry":{"type":"Point","coordinates":[130.841993,-12.4448296]}},{"type":"Feature","properties":{"pinType":"supermarket","name":"Stuart Park Corner Store","osmUrl":"https://www.openstreetmap.org/node/13697627744"},"geometry":{"type":"Point","coordinates":[130.8423335,-12.4448276]}},{"type":"Feature","properties":{"pinType":"cafe_restaurant","name":"Yogi's Way","osmUrl":"https://www.openstreetmap.org/node/13697627745"},"geometry":{"type":"Point","coordinates":[130.8421577,-12.4448246]}},{"type":"Feature","properties":{"pinType":"park","name":"Malak Greenbelt","osmUrl":"https://www.openstreetmap.org/node/13700519043"},"geometry":{"type":"Point","coordinates":[130.9013171,-12.3917918]}},{"type":"Feature","properties":{"pinType":"park","name":"Anula Greenbelt","osmUrl":"https://www.openstreetmap.org/node/13700519046"},"geometry":{"type":"Point","coordinates":[130.8889015,-12.3878719]}},{"type":"Feature","properties":{"pinType":"park","name":"Yanyula Park","osmUrl":"https://www.openstreetmap.org/node/13700519047"},"geometry":{"type":"Point","coordinates":[130.8903685,-12.3902177]}},{"type":"Feature","properties":{"pinType":"cafe_restaurant","name":"Transit Take-Away Oriental Food","osmUrl":"https://www.openstreetmap.org/node/13719943345"},"geometry":{"type":"Point","coordinates":[130.839323,-12.4628677]}},{"type":"Feature","properties":{"pinType":"cafe_restaurant","name":"Four Birds","osmUrl":"https://www.openstreetmap.org/node/13903181001"},"geometry":{"type":"Point","coordinates":[130.8429999,-12.4639071]}},{"type":"Feature","properties":{"pinType":"park","name":"Airlie Park","osmUrl":"https://www.openstreetmap.org/way/16665927"},"geometry":{"type":"Point","coordinates":[130.87262,-12.3663156]}},{"type":"Feature","properties":{"pinType":"park","name":"Greenwood Park","url":"https://www.darwin.nt.gov.au/community/community-facilities/greenwood-park","osmUrl":"https://www.openstreetmap.org/way/42963554"},"geometry":{"type":"Point","coordinates":[130.8820368,-12.3854714]}},{"type":"Feature","properties":{"pinType":"park","name":"Jingili Water Gardens","osmUrl":"https://www.openstreetmap.org/way/48612903"},"geometry":{"type":"Point","coordinates":[130.8675592,-12.3873489]}},{"type":"Feature","properties":{"pinType":"park","name":"Frogs Hollow Park","osmUrl":"https://www.openstreetmap.org/way/69919301"},"geometry":{"type":"Point","coordinates":[130.8417554,-12.4581955]}},{"type":"Feature","properties":{"pinType":"park","name":"Civic Park","url":"http://christchurchcathedral.org.au/","osmUrl":"https://www.openstreetmap.org/way/165268628"},"geometry":{"type":"Point","coordinates":[130.84486,-12.4651481]}},{"type":"Feature","properties":{"pinType":"park","name":"Bicentennial Park","osmUrl":"https://www.openstreetmap.org/way/165268629"},"geometry":{"type":"Point","coordinates":[130.8370669,-12.4631272]}},{"type":"Feature","properties":{"pinType":"park","name":"park","osmUrl":"https://www.openstreetmap.org/way/165583703"},"geometry":{"type":"Point","coordinates":[130.9887042,-12.503721]}},{"type":"Feature","properties":{"pinType":"park","name":"Peace Park","osmUrl":"https://www.openstreetmap.org/way/169300189"},"geometry":{"type":"Point","coordinates":[130.8948333,-12.3735748]}},{"type":"Feature","properties":{"pinType":"park","name":"Bayfield Park","osmUrl":"https://www.openstreetmap.org/way/169304517"},"geometry":{"type":"Point","coordinates":[130.9052187,-12.391787]}},{"type":"Feature","properties":{"pinType":"gym_leisure","name":"Hidden Valley Motorsports Complex","url":"https://www.motorsportsnt.com.au/","osmUrl":"https://www.openstreetmap.org/way/216111349"},"geometry":{"type":"Point","coordinates":[130.9083213,-12.4472927]}},{"type":"Feature","properties":{"pinType":"park","name":"Calvert Park","url":"https://www.darwin.nt.gov.au/community/community-facilities/calvert-park","osmUrl":"https://www.openstreetmap.org/way/217517564"},"geometry":{"type":"Point","coordinates":[130.8745066,-12.3643912]}},{"type":"Feature","properties":{"pinType":"park","name":"Phyllis Uren Park","osmUrl":"https://www.openstreetmap.org/way/219436253"},"geometry":{"type":"Point","coordinates":[130.99743,-12.4798384]}},{"type":"Feature","properties":{"pinType":"park","name":"Berry Springs Nature Park","osmUrl":"https://www.openstreetmap.org/way/222472830"},"geometry":{"type":"Point","coordinates":[130.9981939,-12.7023211]}},{"type":"Feature","properties":{"pinType":"cafe_restaurant","name":"Sole Restaurant","osmUrl":"https://www.openstreetmap.org/way/233929276"},"geometry":{"type":"Point","coordinates":[130.8931366,-12.3409649]}},{"type":"Feature","properties":{"pinType":"cafe_restaurant","name":"Hungry Jack's","osmUrl":"https://www.openstreetmap.org/way/233930097"},"geometry":{"type":"Point","coordinates":[130.8833394,-12.370444]}},{"type":"Feature","properties":{"pinType":"cafe_restaurant","name":"McDonald's","osmUrl":"https://www.openstreetmap.org/way/233930110"},"geometry":{"type":"Point","coordinates":[130.8828312,-12.3706637]}},{"type":"Feature","properties":{"pinType":"cafe_restaurant","name":"Red Rooster","osmUrl":"https://www.openstreetmap.org/way/233930115"},"geometry":{"type":"Point","coordinates":[130.8837204,-12.3714214]}},{"type":"Feature","properties":{"pinType":"gym_leisure","name":"Casuarina Aquatic & Leisure Centre","url":"https://www.darwin.nt.gov.au/community/community-facilities/casuarina-aquatic-leisure-centre","osmUrl":"https://www.openstreetmap.org/way/239376008"},"geometry":{"type":"Point","coordinates":[130.8845252,-12.3744693]}},{"type":"Feature","properties":{"pinType":"park","name":"Rosella Park","url":"https://www.darwin.nt.gov.au/explore/out-and-about/find-a-facility/rosella-park","osmUrl":"https://www.openstreetmap.org/way/241225227"},"geometry":{"type":"Point","coordinates":[130.9026455,-12.3856404]}},{"type":"Feature","properties":{"pinType":"park","name":"Grasslands Park","url":"https://www.darwin.nt.gov.au/community/community-facilities/grasslands-park","osmUrl":"https://www.openstreetmap.org/way/241230150"},"geometry":{"type":"Point","coordinates":[130.8970316,-12.3770907]}},{"type":"Feature","properties":{"pinType":"park","name":"Wilson Park","url":"https://www.darwin.nt.gov.au/community/community-facilities/wilson-park","osmUrl":"https://www.openstreetmap.org/way/241230152"},"geometry":{"type":"Point","coordinates":[130.8838852,-12.3888276]}},{"type":"Feature","properties":{"pinType":"park","name":"Groote Park","url":"https://www.darwin.nt.gov.au/community/community-facilities/groote-park","osmUrl":"https://www.openstreetmap.org/way/241230153"},"geometry":{"type":"Point","coordinates":[130.8875197,-12.3792589]}},{"type":"Feature","properties":{"pinType":"park","name":"park","osmUrl":"https://www.openstreetmap.org/way/241379697"},"geometry":{"type":"Point","coordinates":[130.9187668,-12.4056308]}},{"type":"Feature","properties":{"pinType":"park","name":"park","osmUrl":"https://www.openstreetmap.org/way/241379699"},"geometry":{"type":"Point","coordinates":[130.9167701,-12.4038787]}},{"type":"Feature","properties":{"pinType":"park","name":"park","osmUrl":"https://www.openstreetmap.org/way/241379701"},"geometry":{"type":"Point","coordinates":[130.9227069,-12.4065127]}},{"type":"Feature","properties":{"pinType":"park","name":"park","osmUrl":"https://www.openstreetmap.org/way/241379710"},"geometry":{"type":"Point","coordinates":[130.9213205,-12.4035205]}},{"type":"Feature","properties":{"pinType":"park","name":"Mahogany Park","osmUrl":"https://www.openstreetmap.org/way/241379712"},"geometry":{"type":"Point","coordinates":[130.91079,-12.3963515]}},{"type":"Feature","properties":{"pinType":"park","name":"park","osmUrl":"https://www.openstreetmap.org/way/241379716"},"geometry":{"type":"Point","coordinates":[130.9209894,-12.4069451]}},{"type":"Feature","properties":{"pinType":"park","name":"park","osmUrl":"https://www.openstreetmap.org/way/241379718"},"geometry":{"type":"Point","coordinates":[130.9171603,-12.3971129]}},{"type":"Feature","properties":{"pinType":"park","name":"park","osmUrl":"https://www.openstreetmap.org/way/241379721"},"geometry":{"type":"Point","coordinates":[130.9176731,-12.3946744]}},{"type":"Feature","properties":{"pinType":"park","name":"Holzerland Park","url":"https://www.darwin.nt.gov.au/community/community-facilities/holzerland-park-and-basketball-court","osmUrl":"https://www.openstreetmap.org/way/241380538"},"geometry":{"type":"Point","coordinates":[130.9043627,-12.3953062]}},{"type":"Feature","properties":{"pinType":"supermarket","name":"Gray Supermarket","osmUrl":"https://www.openstreetmap.org/way/241458443"},"geometry":{"type":"Point","coordinates":[130.9814993,-12.4875426]}},{"type":"Feature","properties":{"pinType":"park","name":"park","osmUrl":"https://www.openstreetmap.org/way/241458496"},"geometry":{"type":"Point","coordinates":[130.9795453,-12.487891]}},{"type":"Feature","properties":{"pinType":"park","name":"Tiverton Park","osmUrl":"https://www.openstreetmap.org/way/241458499"},"geometry":{"type":"Point","coordinates":[130.9707313,-12.5030121]}},{"type":"Feature","properties":{"pinType":"park","name":"Ormiston Park","osmUrl":"https://www.openstreetmap.org/way/241458501"},"geometry":{"type":"Point","coordinates":[130.991172,-12.487368]}},{"type":"Feature","properties":{"pinType":"park","name":"Gordon Stott Park","osmUrl":"https://www.openstreetmap.org/way/241458502"},"geometry":{"type":"Point","coordinates":[130.9703142,-12.4995747]}},{"type":"Feature","properties":{"pinType":"park","name":"park","osmUrl":"https://www.openstreetmap.org/way/241458504"},"geometry":{"type":"Point","coordinates":[130.9741346,-12.5099114]}},{"type":"Feature","properties":{"pinType":"park","name":"park","osmUrl":"https://www.openstreetmap.org/way/241458505"},"geometry":{"type":"Point","coordinates":[130.9736084,-12.4991437]}},{"type":"Feature","properties":{"pinType":"park","name":"Prism Park","osmUrl":"https://www.openstreetmap.org/way/241458506"},"geometry":{"type":"Point","coordinates":[130.9779346,-12.4993587]}},