{"type":"FeatureCollection","features":[{"type":"Feature","properties":{"pinType":"gp","name":"Argyle Street Medical Center","osmUrl":"https://www.openstreetmap.org/node/773507847"},"geometry":{"type":"Point","coordinates":[147.311624,-42.864828]}},{"type":"Feature","properties":{"pinType":"gp","name":"Sandy Bay Clinic","osmUrl":"https://www.openstreetmap.org/node/943472278"},"geometry":{"type":"Point","coordinates":[147.3289823,-42.8966881]}},{"type":"Feature","properties":{"pinType":"gp","name":"gp","osmUrl":"https://www.openstreetmap.org/node/2143798160"},"geometry":{"type":"Point","coordinates":[147.4472055,-42.9016004]}},{"type":"Feature","properties":{"pinType":"gp","name":"Psychology Centre","osmUrl":"https://www.openstreetmap.org/node/2317966069"},"geometry":{"type":"Point","coordinates":[147.3206619,-42.8980752]}},{"type":"Feature","properties":{"pinType":"gp","name":"Gregory Street Psychology","osmUrl":"https://www.openstreetmap.org/node/2366820353"},"geometry":{"type":"Point","coordinates":[147.3262696,-42.8957168]}},{"type":"Feature","properties":{"pinType":"gp","name":"gp","osmUrl":"https://www.openstreetmap.org/node/2368113689"},"geometry":{"type":"Point","coordinates":[147.3265397,-42.8956724]}},{"type":"Feature","properties":{"pinType":"gp","name":"Sandy Bay Clinic","osmUrl":"https://www.openstreetmap.org/node/2368358421"},"geometry":{"type":"Point","coordinates":[147.3265081,-42.8948884]}},{"type":"Feature","properties":{"pinType":"gp","name":"Sandy Bay Podiatry","osmUrl":"https://www.openstreetmap.org/node/2376693318"},"geometry":{"type":"Point","coordinates":[147.3275998,-42.8947853]}},{"type":"Feature","properties":{"pinType":"gp","name":"Grosvenor Street General Practice","url":"https://www.grosvenorstgp.com.au/","osmUrl":"https://www.openstreetmap.org/node/2382912379"},"geometry":{"type":"Point","coordinates":[147.3269974,-42.9009695]}},{"type":"Feature","properties":{"pinType":"gp","name":"Kingborough Medical Centre","osmUrl":"https://www.openstreetmap.org/node/2502792095"},"geometry":{"type":"Point","coordinates":[147.3096672,-42.9746398]}},{"type":"Feature","properties":{"pinType":"gp","name":"Mountain Retreat Medical Clinic","osmUrl":"https://www.openstreetmap.org/node/2551183453"},"geometry":{"type":"Point","coordinates":[147.3112961,-42.8939103]}},{"type":"Feature","properties":{"pinType":"gp","name":"Bayside Medical Centre","osmUrl":"https://www.openstreetmap.org/node/3252923366"},"geometry":{"type":"Point","coordinates":[147.3558544,-42.9123783]}},{"type":"Feature","properties":{"pinType":"gp","name":"Hopkins Street Medical Clinic","osmUrl":"https://www.openstreetmap.org/node/3658445479"},"geometry":{"type":"Point","coordinates":[147.2956961,-42.8459787]}},{"type":"Feature","properties":{"pinType":"gp","name":"Glebe Hill Family Practice","osmUrl":"https://www.openstreetmap.org/node/4903114140"},"geometry":{"type":"Point","coordinates":[147.4263646,-42.887347]}},{"type":"Feature","properties":{"pinType":"gp","name":"General Practice Plus","osmUrl":"https://www.openstreetmap.org/node/5589986979"},"geometry":{"type":"Point","coordinates":[147.326056,-42.8957095]}},{"type":"Feature","properties":{"pinType":"gp","name":"City Doctors & Travel Clinic","osmUrl":"https://www.openstreetmap.org/node/8002298271"},"geometry":{"type":"Point","coordinates":[147.3259476,-42.8853698]}},{"type":"Feature","properties":{"pinType":"gp","name":"Glenorchy Medical Centre","osmUrl":"https://www.openstreetmap.org/node/8548704969"},"geometry":{"type":"Point","coordinates":[147.278057,-42.8335728]}},{"type":"Feature","properties":{"pinType":"gp","name":"General Practice Plus","osmUrl":"https://www.openstreetmap.org/node/8756614804"},"geometry":{"type":"Point","coordinates":[147.3118234,-42.9748742]}},{"type":"Feature","properties":{"pinType":"gp","name":"Bathurst Street Skin Cancer Clinic","osmUrl":"https://www.openstreetmap.org/node/9880732675"},"geometry":{"type":"Point","coordinates":[147.3265295,-42.8798984]}},{"type":"Feature","properties":{"pinType":"gp","name":"Glebe Hill Medical","osmUrl":"https://www.openstreetmap.org/node/9941875785"},"geometry":{"type":"Point","coordinates":[147.4270087,-42.8878956]}},{"type":"Feature","properties":{"pinType":"gp","name":"Gore Street Medical","url":"https://gorestreetmedical.com.au","osmUrl":"https://www.openstreetmap.org/node/10276669144"},"geometry":{"type":"Point","coordinates":[147.3174772,-42.8916953]}},{"type":"Feature","properties":{"pinType":"gp","name":"Silk Laser Clinics","url":"https://silklaser.com.au","osmUrl":"https://www.openstreetmap.org/node/10278238421"},"geometry":{"type":"Point","coordinates":[147.3274977,-42.8817612]}},{"type":"Feature","properties":{"pinType":"gp","name":"st.lukes Health","osmUrl":"https://www.openstreetmap.org/node/10657322957"},"geometry":{"type":"Point","coordinates":[147.3268179,-42.8813418]}},{"type":"Feature","properties":{"pinType":"gp","name":"Ochre Medical Centre","url":"https://ochrehealth.com.au","osmUrl":"https://www.openstreetmap.org/node/11077847308"},"geometry":{"type":"Point","coordinates":[147.2952472,-42.8655938]}},{"type":"Feature","properties":{"pinType":"gp","name":"gp","osmUrl":"https://www.openstreetmap.org/node/12270305856"},"geometry":{"type":"Point","coordinates":[147.2581315,-43.0671945]}},{"type":"Feature","properties":{"pinType":"gp","name":"Treasury Medical","osmUrl":"https://www.openstreetmap.org/node/12320035675"},"geometry":{"type":"Point","coordinates":[147.3299655,-42.8844615]}},{"type":"Feature","properties":{"pinType":"gp","name":"Women's Imaging","url":"https://womensimaging.net.au/","osmUrl":"https://www.openstreetmap.org/node/13197188801"},"geometry":{"type":"Point","coordinates":[147.2966324,-42.850441]}},{"type":"Feature","properties":{"pinType":"gp","name":"Spring Farm Village Medical Centre","url":"https://springfarmvillagemedical.com.au/","osmUrl":"https://www.openstreetmap.org/node/13865562106"},"geometry":{"type":"Point","coordinates":[147.2902177,-42.9843602]}},{"type":"Feature","properties":{"pinType":"gp","name":"Moreton Group Medical Services","osmUrl":"https://www.openstreetmap.org/way/326651728"},"geometry":{"type":"Point","coordinates":[147.3099425,-42.8618248]}},{"type":"Feature","properties":{"pinType":"gp","name":"Lenah Valley Medical Centre","osmUrl":"https://www.openstreetmap.org/way/326651748"},"geometry":{"type":"Point","coordinates":[147.2974273,-42.8657867]}},{"type":"Feature","properties":{"pinType":"gp","name":"St Giles - Therapy and Support Services","url":"https://www.stgiles.org.au/","osmUrl":"https://www.openstreetmap.org/way/326659969"},"geometry":{"type":"Point","coordinates":[147.298158,-42.8637888]}},{"type":"Feature","properties":{"pinType":"gp","name":"Battery Point Medical","osmUrl":"https://www.openstreetmap.org/way/384118875"},"geometry":{"type":"Point","coordinates":[147.329271,-42.8901384]}},{"type":"Feature","properties":{"pinType":"gp","name":"Lauderdale Doctors Surgery","osmUrl":"https://www.openstreetmap.org/way/451859912"},"geometry":{"type":"Point","coordinates":[147.4808955,-42.9068433]}},{"type":"Feature","properties":{"pinType":"gp","name":"Outreach Medical Group","osmUrl":"https://www.openstreetmap.org/way/696865698"},"geometry":{"type":"Point","coordinates":[147.3973421,-42.8777635]}},{"type":"Feature","properties":{"pinType":"gp","name":"Geeveston Medical Centre","osmUrl":"https://www.openstreetmap.org/way/852411150"},"geometry":{"type":"Point","coordinates":[146.9267072,-43.1630353]}},{"type":"Feature","properties":{"pinType":"gp","name":"Kingston Beach Medical Centre","osmUrl":"https://www.openstreetmap.org/way/998124724"},"geometry":{"type":"Point","coordinates":[147.3228066,-42.9815332]}},{"type":"Feature","properties":{"pinType":"gp","name":"Greenpoint Medical Services","osmUrl":"https://www.openstreetmap.org/way/1013701356"},"geometry":{"type":"Point","coordinates":[147.2459584,-42.7358383]}},{"type":"Feature","properties":{"pinType":"gp","name":"Child Health and Parenting Service","osmUrl":"https://www.openstreetmap.org/way/1077016912"},"geometry":{"type":"Point","coordinates":[147.4922446,-42.9098166]}},{"type":"Feature","properties":{"pinType":"gp","name":"Cygnet Family Practice","url":"https://cygnetfamilypractice.com/","osmUrl":"https://www.openstreetmap.org/way/1087469250"},"geometry":{"type":"Point","coordinates":[147.0831297,-43.1626]}},{"type":"Feature","properties":{"pinType":"gp","name":"gp","osmUrl":"https://www.openstreetmap.org/way/1106221921"},"geometry":{"type":"Point","coordinates":[147.3996935,-42.8782318]}},{"type":"Feature","properties":{"pinType":"gp","name":"Taroona Family Medical Centre","osmUrl":"https://www.openstreetmap.org/way/1122193202"},"geometry":{"type":"Point","coordinates":[147.3480359,-42.9486765]}},{"type":"Feature","properties":{"pinType":"gp","name":"Mount Nelson Medical Centre","osmUrl":"https://www.openstreetmap.org/way/1126913434"},"geometry":{"type":"Point","coordinates":[147.3219766,-42.920331]}},{"type":"Feature","properties":{"pinType":"gp","name":"Connewarre Clinic & Tasmanian Skin Cancer Centre","osmUrl":"https://www.openstreetmap.org/way/1167491798"},"geometry":{"type":"Point","coordinates":[147.2549805,-42.8011943]}},{"type":"Feature","properties":{"pinType":"gp","name":"Family & Child Health Centre","osmUrl":"https://www.openstreetmap.org/way/1179637097"},"geometry":{"type":"Point","coordinates":[147.3546416,-42.848433]}},{"type":"Feature","properties":{"pinType":"gp","name":"The Lindisfarne Clinic","osmUrl":"https://www.openstreetmap.org/way/1179670762"},"geometry":{"type":"Point","coordinates":[147.3518597,-42.8475233]}},{"type":"Feature","properties":{"pinType":"gp","name":"Ochre Medical Centre","url":"https://ochrehealth.com.au/medical-centre-cygnet/","osmUrl":"https://www.openstreetmap.org/way/1481642704"},"geometry":{"type":"Point","coordinates":[147.0741347,-43.1600131]}},{"type":"Feature","properties":{"pinType":"gp","name":"Hobart Skin Cancer Clinic","url":"https://hobartskincancerclinic.com.au/","osmUrl":"https://www.openstreetmap.org/way/1527501890"},"geometry":{"type":"Point","coordinates":[147.3674103,-42.8745193]}},{"type":"Feature","properties":{"pinType":"gp","name":"Eastern Shore Doctors Bellerive","url":"https://www.easternshoredoctors.com.au/","osmUrl":"https://www.openstreetmap.org/way/1527792797"},"geometry":{"type":"Point","coordinates":[147.3677368,-42.8745876]}},{"type":"Feature","properties":{"pinType":"hospital","name":"The Hobart Clinic","osmUrl":"https://www.openstreetmap.org/node/1977400723"},"geometry":{"type":"Point","coordinates":[147.4354685,-42.9046784]}},{"type":"Feature","properties":{"pinType":"hospital","name":"Wellington Centre","osmUrl":"https://www.openstreetmap.org/node/4045297894"},"geometry":{"type":"Point","coordinates":[147.3288977,-42.8806222]}},{"type":"Feature","properties":{"pinType":"school","name":"Cottage School","osmUrl":"https://www.openstreetmap.org/node/797196039"},"geometry":{"type":"Point","coordinates":[147.3672829,-42.8755152]}},{"type":"Feature","properties":{"pinType":"school","name":"school","osmUrl":"https://www.openstreetmap.org/node/1295670153"},"geometry":{"type":"Point","coordinates":[147.3288061,-42.8815468]}},{"type":"Feature","properties":{"pinType":"school","name":"Calvin Christian School - Junior","osmUrl":"https://www.openstreetmap.org/node/1680919208"},"geometry":{"type":"Point","coordinates":[147.3043764,-42.9791368]}},{"type":"Feature","properties":{"pinType":"school","name":"The Friends School","url":"https://www.friends.tas.edu.au/","osmUrl":"https://www.openstreetmap.org/node/1866684342"},"geometry":{"type":"Point","coordinates":[147.313112,-42.869011]}},{"type":"Feature","properties":{"pinType":"school","name":"Eastside Lutheran College","osmUrl":"https://www.openstreetmap.org/node/1970967332"},"geometry":{"type":"Point","coordinates":[147.3843878,-42.8517597]}},{"type":"Feature","properties":{"pinType":"school","name":"Hobart City High School -Ogilvie Campus","osmUrl":"https://www.openstreetmap.org/node/9771163782"},"geometry":{"type":"Point","coordinates":[147.3004769,-42.8550606]}},{"type":"Feature","properties":{"pinType":"school","name":"Bowen Road Primary School","osmUrl":"https://www.openstreetmap.org/way/9269724"},"geometry":{"type":"Point","coordinates":[147.3079816,-42.8474424]}},{"type":"Feature","properties":{"pinType":"school","name":"Hobart City High School - Ogilvie Campus","osmUrl":"https://www.openstreetmap.org/way/9833082"},"geometry":{"type":"Point","coordinates":[147.3002267,-42.8551861]}},{"type":"Feature","properties":{"pinType":"school","name":"New Town Primary School","url":"https://education.tas.edu.au/newtownprimary","osmUrl":"https://www.openstreetmap.org/way/9833392"},"geometry":{"type":"Point","coordinates":[147.3005093,-42.8570588]}},{"type":"Feature","properties":{"pinType":"school","name":"Hobart City High School - New Town Campus","osmUrl":"https://www.openstreetmap.org/way/9833792"},"geometry":{"type":"Point","coordinates":[147.302976,-42.8510222]}},{"type":"Feature","properties":{"pinType":"school","name":"Cambridge Primary School","url":"https://education.tas.edu.au/cambridgeprimary","osmUrl":"https://www.openstreetmap.org/way/9905066"},"geometry":{"type":"Point","coordinates":[147.4418902,-42.8359913]}},{"type":"Feature","properties":{"pinType":"school","name":"St Therese's Primary School","osmUrl":"https://www.openstreetmap.org/way/10911704"},"geometry":{"type":"Point","coordinates":[147.290829,-42.8466895]}},{"type":"Feature","properties":{"pinType":"school","name":"Hilliard Christian School","url":"https://www.hilliardchristianschool.com.au","osmUrl":"https://www.openstreetmap.org/way/12247613"},"geometry":{"type":"Point","coordinates":[147.2867794,-42.8539558]}},{"type":"Feature","properties":{"pinType":"school","name":"Springfield Gardens Primary School","url":"https://springfieldgardensprimary.education.tas.edu.au","osmUrl":"https://www.openstreetmap.org/way/12247911"},"geometry":{"type":"Point","coordinates":[147.276191,-42.8477752]}},{"type":"Feature","properties":{"pinType":"school","name":"Holy Rosary School","osmUrl":"https://www.openstreetmap.org/way/14769688"},"geometry":{"type":"Point","coordinates":[147.2485188,-42.7896089]}},{"type":"Feature","properties":{"pinType":"school","name":"Rosny College","osmUrl":"https://www.openstreetmap.org/way/15090748"},"geometry":{"type":"Point","coordinates":[147.3652648,-42.869354]}},{"type":"Feature","properties":{"pinType":"school","name":"Molesworth Primary School","osmUrl":"https://www.openstreetmap.org/way/15489493"},"geometry":{"type":"Point","coordinates":[147.1559262,-42.8040128]}},{"type":"Feature","properties":{"pinType":"school","name":"Lenah Valley Primary School","osmUrl":"https://www.openstreetmap.org/way/26665427"},"geometry":{"type":"Point","coordinates":[147.2903974,-42.8612052]}},{"type":"Feature","properties":{"pinType":"school","name":"Guilford Young College (Glenorchy Campus)","osmUrl":"https://www.openstreetmap.org/way/26969039"},"geometry":{"type":"Point","coordinates":[147.2708629,-42.8354646]}},{"type":"Feature","properties":{"pinType":"school","name":"Lindisfarne North Primary School","osmUrl":"https://www.openstreetmap.org/way/26970580"},"geometry":{"type":"Point","coordinates":[147.3482145,-42.8380705]}},{"type":"Feature","properties":{"pinType":"school","name":"Campbell Street Primary School","osmUrl":"https://www.openstreetmap.org/way/27241385"},"geometry":{"type":"Point","coordinates":[147.3228103,-42.872573]}},{"type":"Feature","properties":{"pinType":"school","name":"Montrose Bay High School","url":"https://www.montrosebayhigh.tas.edu.au/","osmUrl":"https://www.openstreetmap.org/way/27371011"},"geometry":{"type":"Point","coordinates":[147.2665791,-42.8204293]}},{"type":"Feature","properties":{"pinType":"school","name":"St Mary's College","osmUrl":"https://www.openstreetmap.org/way/27461271"},"geometry":{"type":"Point","coordinates":[147.3189566,-42.8819721]}},{"type":"Feature","properties":{"pinType":"school","name":"Guilford Young College","osmUrl":"https://www.openstreetmap.org/way/27461293"},"geometry":{"type":"Point","coordinates":[147.3171507,-42.8831039]}},{"type":"Feature","properties":{"pinType":"school","name":"Elizabeth College","url":"https://elizabethcollege.tas.edu.au/","osmUrl":"https://www.openstreetmap.org/way/27461303"},"geometry":{"type":"Point","coordinates":[147.3180138,-42.877895]}},{"type":"Feature","properties":{"pinType":"school","name":"Windermere Primary School","url":"https://windermereprimary.education.tas.edu.au","osmUrl":"https://www.openstreetmap.org/way/27500222"},"geometry":{"type":"Point","coordinates":[147.258066,-42.7990772]}},{"type":"Feature","properties":{"pinType":"school","name":"Claremont College","url":"https://claremontcollege.education.tas.edu.au","osmUrl":"https://www.openstreetmap.org/way/27651624"},"geometry":{"type":"Point","coordinates":[147.2505805,-42.7951176]}},{"type":"Feature","properties":{"pinType":"school","name":"St Michael's Collegiate","osmUrl":"https://www.openstreetmap.org/way/27669503"},"geometry":{"type":"Point","coordinates":[147.3236778,-42.8883869]}},{"type":"Feature","properties":{"pinType":"school","name":"Lansdowne Crescent Primary School","osmUrl":"https://www.openstreetmap.org/way/27669518"},"geometry":{"type":"Point","coordinates":[147.3082364,-42.8810942]}},{"type":"Feature","properties":{"pinType":"school","name":"Mount Stuart Primary School","osmUrl":"https://www.openstreetmap.org/way/27898303"},"geometry":{"type":"Point","coordinates":[147.299146,-42.8750163]}},{"type":"Feature","properties":{"pinType":"school","name":"Albuera Street Primary School","osmUrl":"https://www.openstreetmap.org/way/27959049"},"geometry":{"type":"Point","coordinates":[147.3258064,-42.8912684]}},{"type":"Feature","properties":{"pinType":"school","name":"Rosetta Primary School","url":"https://rosettaprimary.education.tas.edu.au/","osmUrl":"https://www.openstreetmap.org/way/27959125"},"geometry":{"type":"Point","coordinates":[147.2575408,-42.8220029]}},{"type":"Feature","properties":{"pinType":"school","name":"Hobart College","osmUrl":"https://www.openstreetmap.org/way/29858941"},"geometry":{"type":"Point","coordinates":[147.3142189,-42.9195751]}},{"type":"Feature","properties":{"pinType":"school","name":"Orford Primary School","osmUrl":"https://www.openstreetmap.org/way/30085263"},"geometry":{"type":"Point","coordinates":[147.8738567,-42.5632413]}},{"type":"Feature","properties":{"pinType":"school","name":"Austins Ferry Primary School","url":"https://austinsferryprimary.education.tas.edu.au","osmUrl":"https://www.openstreetmap.org/way/34326551"},"geometry":{"type":"Point","coordinates":[147.2390479,-42.7848496]}},{"type":"Feature","properties":{"pinType":"school","name":"St Virgil's College","osmUrl":"https://www.openstreetmap.org/way/34326625"},"geometry":{"type":"Point","coordinates":[147.2526232,-42.7754848]}},{"type":"Feature","properties":{"pinType":"school","name":"Princes Street Primary School","osmUrl":"https://www.openstreetmap.org/way/34411748"},"geometry":{"type":"Point","coordinates":[147.318299,-42.899307]}},{"type":"Feature","properties":{"pinType":"school","name":"Rose Bay High School","url":"https://www.rosebayhigh.education.tas.edu.au","osmUrl":"https://www.openstreetmap.org/way/34549930"},"geometry":{"type":"Point","coordinates":[147.3585364,-42.8614108]}},{"type":"Feature","properties":{"pinType":"school","name":"The Friends School","url":"https://www.friends.tas.edu.au/","osmUrl":"https://www.openstreetmap.org/way/49231345"},"geometry":{"type":"Point","coordinates":[147.3144465,-42.8658791]}},{"type":"Feature","properties":{"pinType":"school","name":"JRLF - Gagebrook Primary School","osmUrl":"https://www.openstreetmap.org/way/67028069"},"geometry":{"type":"Point","coordinates":[147.2758164,-42.748706]}},{"type":"Feature","properties":{"pinType":"school","name":"Sandy Bay Infant School","osmUrl":"https://www.openstreetmap.org/way/82487701"},"geometry":{"type":"Point","coordinates":[147.349394,-42.9096031]}},{"type":"Feature","properties":{"pinType":"school","name":"Woodbridge School","url":"https://www.woodbridge.education.tas.edu.au/","osmUrl":"https://www.openstreetmap.org/way/90242232"},"geometry":{"type":"Point","coordinates":[147.2399135,-43.1648311]}},{"type":"Feature","properties":{"pinType":"school","name":"St Johns Catholic School","osmUrl":"https://www.openstreetmap.org/way/96656231"},"geometry":{"type":"Point","coordinates":[147.4416853,-42.7330118]}},{"type":"Feature","properties":{"pinType":"school","name":"Richmond Primary School","url":"https://www.richmondprimary.education.tas.edu.au","osmUrl":"https://www.openstreetmap.org/way/96656626"},"geometry":{"type":"Point","coordinates":[147.4380766,-42.7393175]}},{"type":"Feature","properties":{"pinType":"school","name":"Moonah Primary School","osmUrl":"https://www.openstreetmap.org/way/146336314"},"geometry":{"type":"Point","coordinates":[147.2964268,-42.8380955]}},{"type":"Feature","properties":{"pinType":"school","name":"The Friends' School","url":"https://www.friends.tas.edu.au/","osmUrl":"https://www.openstreetmap.org/way/169566307"},"geometry":{"type":"Point","coordinates":[147.3132159,-42.8690024]}},{"type":"Feature","properties":{"pinType":"school","name":"St Virgil's School","osmUrl":"https://www.openstreetmap.org/way/171633942"},"geometry":{"type":"Point","coordinates":[147.3186668,-42.8812871]}},{"type":"Feature","properties":{"pinType":"school","name":"Corpus Christi Catholic School","osmUrl":"https://www.openstreetmap.org/way/172735103"},"geometry":{"type":"Point","coordinates":[147.372005,-42.870909]}},{"type":"Feature","properties":{"pinType":"school","name":"St Aloysius Catholic College","osmUrl":"https://www.openstreetmap.org/way/177304056"},"geometry":{"type":"Point","coordinates":[147.3227081,-42.9905507]}},{"type":"Feature","properties":{"pinType":"school","name":"Blackmans Bay Primary School","osmUrl":"https://www.openstreetmap.org/way/177304081"},"geometry":{"type":"Point","coordinates":[147.3213159,-42.997077]}},{"type":"Feature","properties":{"pinType":"school","name":"St Aloysius Catholic College Middle Campus","osmUrl":"https://www.openstreetmap.org/way/177500418"},"geometry":{"type":"Point","coordinates":[147.2874051,-42.9970971]}},{"type":"Feature","properties":{"pinType":"school","name":"Tarremah Steiner School","url":"https://www.tarremah.tas.edu.au/","osmUrl":"https://www.openstreetmap.org/way/177500419"},"geometry":{"type":"Point","coordinates":[147.28988,-42.9981753]}},{"type":"Feature","properties":{"pinType":"school","name":"Cosgrove High School","url":"https://cosgrovehigh.education.tas.edu.au","osmUrl":"https://www.openstreetmap.org/way/187573589"},"geometry":{"type":"Point","coordinates":[147.2831352,-42.8364237]}},{"type":"Feature","properties":{"pinType":"school","name":"Glenorchy Primary School","url":"https://glenorchyprimary.education.tas.edu.au/","osmUrl":"https://www.openstreetmap.org/way/187573595"},"geometry":{"type":"Point","coordinates":[147.2671366,-42.8306954]}},{"type":"Feature","properties":{"pinType":"school","name":"John Paul II Catholic Primary School","osmUrl":"https://www.openstreetmap.org/way/197100750"},"geometry":{"type":"Point","coordinates":[147.4464261,-42.8945166]}},{"type":"Feature","properties":{"pinType":"school","name":"South Hobart Primary School","url":"http://www.southhobart.tased.edu.au/","osmUrl":"https://www.openstreetmap.org/way/200240107"},"geometry":{"type":"Point","coordinates":[147.3108932,-42.8924463]}},{"type":"Feature","properties":{"pinType":"school","name":"St Michael's Collegiate Early Learning Centre Anglesea","osmUrl":"https://www.openstreetmap.org/way/200240280"},"geometry":{"type":"Point","coordinates":[147.3094696,-42.8933294]}},{"type":"Feature","properties":{"pinType":"school","name":"Clarence High School","osmUrl":"https://www.openstreetmap.org/way/207162784"},"geometry":{"type":"Point","coordinates":[147.3892151,-42.8781908]}},{"type":"Feature","properties":{"pinType":"school","name":"Montagu Bay Primary School","osmUrl":"https://www.openstreetmap.org/way/207279916"},"geometry":{"type":"Point","coordinates":[147.3525066,-42.8645039]}},{"type":"Feature","properties":{"pinType":"school","name":"school","osmUrl":"https://www.openstreetmap.org/way/207539510"},"geometry":{"type":"Point","coordinates":[147.4026705,-42.880995]}},{"type":"Feature","properties":{"pinType":"school","name":"school","osmUrl":"https://www.openstreetmap.org/way/207539516"},"geometry":{"type":"Point","coordinates":[147.4023011,-42.8811776]}},{"type":"Feature","properties":{"pinType":"school","name":"Howrah Primary School","osmUrl":"https://www.openstreetmap.org/way/207539552"},"geometry":{"type":"Point","coordinates":[147.4029185,-42.8816036]}},{"type":"Feature","properties":{"pinType":"school","name":"school","osmUrl":"https://www.openstreetmap.org/way/207539553"},"geometry":{"type":"Point","coordinates":[147.4035415,-42.8814871]}},{"type":"Feature","properties":{"pinType":"school","name":"Howrah Primary School","osmUrl":"https://www.openstreetmap.org/way/207549841"},"geometry":{"type":"Point","coordinates":[147.4016512,-42.8799329]}},{"type":"Feature","properties":{"pinType":"school","name":"Geeveston Primary School","osmUrl":"https://www.openstreetmap.org/way/229848781"},"geometry":{"type":"Point","coordinates":[146.919571,-43.1633051]}},{"type":"Feature","properties":{"pinType":"school","name":"Sacred Heart Catholic School","url":"https://shg.tas.edu.au/","osmUrl":"https://www.openstreetmap.org/way/229953011"},"geometry":{"type":"Point","coordinates":[146.9437311,-43.1647106]}},{"type":"Feature","properties":{"pinType":"school","name":"Fairview Primary School","osmUrl":"https://www.openstreetmap.org/way/248183965"},"geometry":{"type":"Point","coordinates":[147.0509192,-42.7741346]}},{"type":"Feature","properties":{"pinType":"school","name":"St Brigids School","osmUrl":"https://www.openstreetmap.org/way/248613426"},"geometry":{"type":"Point","coordinates":[147.055504,-42.7804595]}},{"type":"Feature","properties":{"pinType":"school","name":"Lauderdale Primary School","osmUrl":"https://www.openstreetmap.org/way/279927418"},"geometry":{"type":"Point","coordinates":[147.4789628,-42.9043282]}},{"type":"Feature","properties":{"pinType":"school","name":"JRLF - East Derwent Primary School","url":"https://education.tas.edu.au/jrlf","osmUrl":"https://www.openstreetmap.org/way/303590996"},"geometry":{"type":"Point","coordinates":[147.2499916,-42.7433326]}},{"type":"Feature","properties":{"pinType":"school","name":"JRLF - Senior School","url":"https://jrlfsenior.education.tas.edu.au/","osmUrl":"https://www.openstreetmap.org/way/303590998"},"geometry":{"type":"Point","coordinates":[147.2397553,-42.7372363]}},{"type":"Feature","properties":{"pinType":"school","name":"JRLF - Herdsmans Cove Primary School","osmUrl":"https://www.openstreetmap.org/way/303592072"},"geometry":{"type":"Point","coordinates":[147.2638768,-42.7489487]}},{"type":"Feature","properties":{"pinType":"school","name":"Brighton Primary School","osmUrl":"https://www.openstreetmap.org/way/306086475"},"geometry":{"type":"Point","coordinates":[147.2585141,-42.6990909]}},{"type":"Feature","properties":{"pinType":"school","name":"Waimea Heights Primary School","url":"https://education.tas.edu.au/waimeaheightsprimary/","osmUrl":"https://www.openstreetmap.org/way/318906840"},"geometry":{"type":"Point","coordinates":[147.3362889,-42.9096183]}},{"type":"Feature","properties":{"pinType":"school","name":"MacKillop Catholic College","url":"https://www.mackillop.tas.edu.au/","osmUrl":"https://www.openstreetmap.org/way/319060839"},"geometry":{"type":"Point","coordinates":[147.4006974,-42.8579558]}},{"type":"Feature","properties":{"pinType":"school","name":"Mount Carmel College","url":"https://mountcarmel.tas.edu.au/","osmUrl":"https://www.openstreetmap.org/way/338574807"},"geometry":{"type":"Point","coordinates":[147.3320165,-42.901953]}},{"type":"Feature","properties":{"pinType":"school","name":"Howrah Primary School","url":"https://howrahprimary.education.tas.edu.au/","osmUrl":"https://www.openstreetmap.org/way/342876304"},"geometry":{"type":"Point","coordinates":[147.4023919,-42.880949]}},{"type":"Feature","properties":{"pinType":"school","name":"New Norfolk District High School","osmUrl":"https://www.openstreetmap.org/way/358821657"},"geometry":{"type":"Point","coordinates":[147.0613575,-42.7888916]}},{"type":"Feature","properties":{"pinType":"school","name":"Margate Primary School","url":"https://margateprimary.education.tas.edu.au/","osmUrl":"https://www.openstreetmap.org/way/414733087"},"geometry":{"type":"Point","coordinates":[147.2610014,-43.0277737]}},{"type":"Feature","properties":{"pinType":"school","name":"Bayview Secondary College","url":"https://bayviewsc.education.tas.edu.au","osmUrl":"https://www.openstreetmap.org/way/422929459"},"geometry":{"type":"Point","coordinates":[147.4440796,-42.8969042]}},{"type":"Feature","properties":{"pinType":"school","name":"Rokeby Primary School","osmUrl":"https://www.openstreetmap.org/way/432708622"},"geometry":{"type":"Point","coordinates":[147.4337619,-42.8987011]}},{"type":"Feature","properties":{"pinType":"school","name":"Emmanuel Christian School","osmUrl":"https://www.openstreetmap.org/way/432708623"},"geometry":{"type":"Point","coordinates":[147.4396184,-42.9009463]}},{"type":"Feature","properties":{"pinType":"school","name":"Risdon Vale Primary School","osmUrl":"https://www.openstreetmap.org/way/502553328"},"geometry":{"type":"Point","coordinates":[147.3533415,-42.8126929]}},{"type":"Feature","properties":{"pinType":"school","name":"Goodwood Primary School","osmUrl":"https://www.openstreetmap.org/way/504935898"},"geometry":{"type":"Point","coordinates":[147.2926547,-42.8321716]}},{"type":"Feature","properties":{"pinType":"school","name":"Dominic College","osmUrl":"https://www.openstreetmap.org/way/505211552"},"geometry":{"type":"Point","coordinates":[147.2564091,-42.84828]}},{"type":"Feature","properties":{"pinType":"school","name":"Sacred Heart College","osmUrl":"https://www.openstreetmap.org/way/505421987"},"geometry":{"type":"Point","coordinates":[147.3043199,-42.8617227]}},{"type":"Feature","properties":{"pinType":"school","name":"Goulburn Street Primary School","osmUrl":"https://www.openstreetmap.org/way/505425311"},"geometry":{"type":"Point","coordinates":[147.316909,-42.8878481]}},{"type":"Feature","properties":{"pinType":"school","name":"Fahan School","osmUrl":"https://www.openstreetmap.org/way/505461423"},"geometry":{"type":"Point","coordinates":[147.3524855,-42.9162153]}},{"type":"Feature","properties":{"pinType":"school","name":"The Hutchins School","osmUrl":"https://www.openstreetmap.org/way/505464747"},"geometry":{"type":"Point","coordinates":[147.3293992,-42.9057726]}},{"type":"Feature","properties":{"pinType":"school","name":"Illawarra Primary School","url":"https://illawarraprimaryschool.education.tas.edu.au/","osmUrl":"https://www.openstreetmap.org/way/505706366"},"geometry":{"type":"Point","coordinates":[147.3194799,-43.0086074]}},{"type":"Feature","properties":{"pinType":"school","name":"Snug Primary School","osmUrl":"https://www.openstreetmap.org/way/505731815"},"geometry":{"type":"Point","coordinates":[147.2535496,-43.0658281]}},{"type":"Feature","properties":{"pinType":"school","name":"Taroona High School","url":"https://taroonahigh.education.tas.edu.au/","osmUrl":"https://www.openstreetmap.org/way/506580047"},"geometry":{"type":"Point","coordinates":[147.3554598,-42.9422005]}},{"type":"Feature","properties":{"pinType":"school","name":"Taroona Primary School","osmUrl":"https://www.openstreetmap.org/way/506580048"},"geometry":{"type":"Point","coordinates":[147.3528426,-42.9430525]}},{"type":"Feature","properties":{"pinType":"school","name":"Bellerive Primary School","osmUrl":"https://www.openstreetmap.org/way/508873922"},"geometry":{"type":"Point","coordinates":[147.373538,-42.8731583]}},{"type":"Feature","properties":{"pinType":"school","name":"Huonville High School","osmUrl":"https://www.openstreetmap.org/way/514096660"},"geometry":{"type":"Point","coordinates":[147.0461849,-43.0236492]}},{"type":"Feature","properties":{"pinType":"school","name":"Franklin Primary School","osmUrl":"https://www.openstreetmap.org/way/521123001"},"geometry":{"type":"Point","coordinates":[147.0118193,-43.0855643]}},{"type":"Feature","properties":{"pinType":"school","name":"Campania District School","url":"https://www.campaniadistrict.tas.edu.au/","osmUrl":"https://www.openstreetmap.org/way/521386337"},"geometry":{"type":"Point","coordinates":[147.4242039,-42.6660103]}},{"type":"Feature","properties":{"pinType":"school","name":"Channel Christian School","osmUrl":"https://www.openstreetmap.org/way/564159516"},"geometry":{"type":"Point","coordinates":[147.272525,-43.0271493]}},{"type":"Feature","properties":{"pinType":"school","name":"Southern Christian College","osmUrl":"https://www.openstreetmap.org/way/566049421"},"geometry":{"type":"Point","coordinates":[147.3089457,-42.9905656]}},{"type":"Feature","properties":{"pinType":"school","name":"Glen Huon Primary School","osmUrl":"https://www.openstreetmap.org/way/568584867"},"geometry":{"type":"Point","coordinates":[146.9616689,-43.028283]}},{"type":"Feature","properties":{"pinType":"school","name":"Tasman District School","osmUrl":"https://www.openstreetmap.org/way/574418771"},"geometry":{"type":"Point","coordinates":[147.7467506,-43.0984622]}},{"type":"Feature","properties":{"pinType":"school","name":"Calvin Christian Secondary School","osmUrl":"https://www.openstreetmap.org/way/598414751"},"geometry":{"type":"Point","coordinates":[147.306631,-42.9803993]}},{"type":"Feature","properties":{"pinType":"school","name":"Calvin Christian Primary School","osmUrl":"https://www.openstreetmap.org/way/598414754"},"geometry":{"type":"Point","coordinates":[147.3039952,-42.9790304]}},{"type":"Feature","properties":{"pinType":"school","name":"Northern Christian School","osmUrl":"https://www.openstreetmap.org/way/607277101"},"geometry":{"type":"Point","coordinates":[147.2228361,-42.7303401]}},{"type":"Feature","properties":{"pinType":"school","name":"St Pauls Catholic School","osmUrl":"https://www.openstreetmap.org/way/607277119"},"geometry":{"type":"Point","coordinates":[147.2477334,-42.7372761]}},{"type":"Feature","properties":{"pinType":"school","name":"Lindisfarne Primary School","osmUrl":"https://www.openstreetmap.org/way/607504822"},"geometry":{"type":"Point","coordinates":[147.3637312,-42.8520285]}},{"type":"Feature","properties":{"pinType":"school","name":"Warrane Primary School","osmUrl":"https://www.openstreetmap.org/way/607567715"},"geometry":{"type":"Point","coordinates":[147.382727,-42.8613345]}},{"type":"Feature","properties":{"pinType":"school","name":"Collinsvale Primary School","osmUrl":"https://www.openstreetmap.org/way/609826054"},"geometry":{"type":"Point","coordinates":[147.1983642,-42.8369567]}},{"type":"Feature","properties":{"pinType":"school","name":"Dodges Ferry Primary School","url":"https://dodgesferryprimary.education.tas.edu.au","osmUrl":"https://www.openstreetmap.org/way/617704448"},"geometry":{"type":"Point","coordinates":[147.6235353,-42.8488668]}},{"type":"Feature","properties":{"pinType":"school","name":"Kingston High School","osmUrl":"https://www.openstreetmap.org/way/622319295"},"geometry":{"type":"Point","coordinates":[147.2884734,-42.9705775]}},{"type":"Feature","properties":{"pinType":"school","name":"Bagdad Primary School","osmUrl":"https://www.openstreetmap.org/way/644349576"},"geometry":{"type":"Point","coordinates":[147.2234138,-42.6245234]}},{"type":"Feature","properties":{"pinType":"school","name":"Clarendon Vale Primary School","osmUrl":"https://www.openstreetmap.org/way/662201493"},"geometry":{"type":"Point","coordinates":[147.4442261,-42.8875248]}},{"type":"Feature","properties":{"pinType":"school","name":"Kingston Primary School","osmUrl":"https://www.openstreetmap.org/way/669056744"},"geometry":{"type":"Point","coordinates":[147.3097663,-42.9794737]}},{"type":"Feature","properties":{"pinType":"school","name":"Sorell School","url":"https://sorell.education.tas.edu.au/","osmUrl":"https://www.openstreetmap.org/way/694436885"},"geometry":{"type":"Point","coordinates":[147.5595538,-42.7880179]}},{"type":"Feature","properties":{"pinType":"school","name":"Cygnet Primary School","osmUrl":"https://www.openstreetmap.org/way/694445093"},"geometry":{"type":"Point","coordinates":[147.0721556,-43.1582309]}},{"type":"Feature","properties":{"pinType":"school","name":"Immaculate Heart of Mary Catholic School","url":"https://www.ihms.tas.edu.au","osmUrl":"https://www.openstreetmap.org/way/711893812"},"geometry":{"type":"Point","coordinates":[147.2905888,-42.865496]}},{"type":"Feature","properties":{"pinType":"school","name":"OneSchool Global Tasmania (Hobart Campus)","url":"https://www.oneschoolglobal.com/campus/australia/hobart","osmUrl":"https://www.openstreetmap.org/way/713941999"},"geometry":{"type":"Point","coordinates":[147.2626934,-42.7969621]}},{"type":"Feature","properties":{"pinType":"school","name":"Australian Christian College - Hobart","osmUrl":"https://www.openstreetmap.org/way/725227379"},"geometry":{"type":"Point","coordinates":[147.3529286,-42.8396585]}},{"type":"Feature","properties":{"pinType":"school","name":"St Cuthberts Catholic School","url":"https://www.stcuthberts.tas.edu.au/","osmUrl":"https://www.openstreetmap.org/way/726613435"},"geometry":{"type":"Point","coordinates":[147.3555142,-42.843413]}},{"type":"Feature","properties":{"pinType":"school","name":"Dunalley Primary School","osmUrl":"https://www.openstreetmap.org/way/776479128"},"geometry":{"type":"Point","coordinates":[147.8119794,-42.8850723]}},{"type":"Feature","properties":{"pinType":"school","name":"South Arm Primary School","osmUrl":"https://www.openstreetmap.org/way/852554760"},"geometry":{"type":"Point","coordinates":[147.4201286,-43.0257756]}},{"type":"Feature","properties":{"pinType":"school","name":"The Cottage School","osmUrl":"https://www.openstreetmap.org/way/939605002"},"geometry":{"type":"Point","coordinates":[147.3674668,-42.8754467]}},{"type":"Feature","properties":{"pinType":"school","name":"Jordan River Learning Federation School Farm","url":"https://jrlf.education.tas.edu.au/Pages/Home.aspx","osmUrl":"https://www.openstreetmap.org/way/947159324"},"geometry":{"type":"Point","coordinates":[147.2565919,-42.6967408]}},{"type":"Feature","properties":{"pinType":"school","name":"Tasmanian Aquaculture & Fisheries Institute","osmUrl":"https://www.openstreetmap.org/way/984658306"},"geometry":{"type":"Point","coordinates":[147.3546674,-42.9505729]}},{"type":"Feature","properties":{"pinType":"school","name":"Howrah Primary School Kindergarten","osmUrl":"https://www.openstreetmap.org/way/1016754930"},"geometry":{"type":"Point","coordinates":[147.4048928,-42.8803472]}},{"type":"Feature","properties":{"pinType":"school","name":"Sustainability Learning Centre","url":"https://sustainabilitylc.education.tas.edu.au/","osmUrl":"https://www.openstreetmap.org/way/1126651543"},"geometry":{"type":"Point","coordinates":[147.3188424,-42.9183006]}},{"type":"Feature","properties":{"pinType":"school","name":"Mount Nelson Primary School","osmUrl":"https://www.openstreetmap.org/way/1165558790"},"geometry":{"type":"Point","coordinates":[147.3225008,-42.9132032]}},{"type":"Feature","properties":{"pinType":"school","name":"St Virgils College Marine Education Centre","osmUrl":"https://www.openstreetmap.org/way/1166058914"},"geometry":{"type":"Point","coordinates":[147.2563518,-42.7802795]}},{"type":"Feature","properties":{"pinType":"school","name":"St Aloysius Catholic College Senior Campus","osmUrl":"https://www.openstreetmap.org/way/1301226114"},"geometry":{"type":"Point","coordinates":[147.2903536,-42.9939546]}},{"type":"Feature","properties":{"pinType":"school","name":"Brighton High School","osmUrl":"https://www.openstreetmap.org/way/1318078945"},"geometry":{"type":"Point","coordinates":[147.2465927,-42.7042905]}},{"type":"Feature","properties":{"pinType":"school","name":"New Norfolk Primary School","osmUrl":"https://www.openstreetmap.org/way/1427603152"},"geometry":{"type":"Point","coordinates":[147.0637706,-42.7789602]}},{"type":"Feature","properties":{"pinType":"school","name":"Indie School New Norfolk","osmUrl":"https://www.openstreetmap.org/way/1427610804"},"geometry":{"type":"Point","coordinates":[147.0639171,-42.7845638]}},{"type":"Feature","properties":{"pinType":"school","name":"school","osmUrl":"https://www.openstreetmap.org/way/1472516218"},"geometry":{"type":"Point","coordinates":[147.1522347,-43.1416862]}},{"type":"Feature","properties":{"pinType":"post_office","name":"Geeveston LPO","osmUrl":"https://www.openstreetmap.org/node/250285340"},"geometry":{"type":"Point","coordinates":[146.9273044,-43.1639281]}},{"type":"Feature","properties":{"pinType":"post_office","name":"Woodbridge Post Office","osmUrl":"https://www.openstreetmap.org/node/259243862"},"geometry":{"type":"Point","coordinates":[147.2386497,-43.1605471]}},{"type":"Feature","properties":{"pinType":"post_office","name":"Australia Post","osmUrl":"https://www.openstreetmap.org/node/303698664"},"geometry":{"type":"Point","coordinates":[147.2552523,-42.7911145]}},{"type":"Feature","properties":{"pinType":"post_office","name":"Sandy Bay Post Office","osmUrl":"https://www.openstreetmap.org/node/393764642"},"geometry":{"type":"Point","coordinates":[147.3269057,-42.8945948]}},{"type":"Feature","properties":{"pinType":"post_office","name":"Battery Point Post Office","osmUrl":"https://www.openstreetmap.org/node/393765001"},"geometry":{"type":"Point","coordinates":[147.3332852,-42.8896827]}},{"type":"Feature","properties":{"pinType":"post_office","name":"South Hobart Post Office","osmUrl":"https://www.openstreetmap.org/node/797215464"},"geometry":{"type":"Point","coordinates":[147.3160643,-42.8924764]}},{"type":"Feature","properties":{"pinType":"post_office","name":"Sorell Post Shop","osmUrl":"https://www.openstreetmap.org/node/1438083149"},"geometry":{"type":"Point","coordinates":[147.5620995,-42.7832586]}},{"type":"Feature","properties":{"pinType":"post_office","name":"Rosny Post Office","osmUrl":"https://www.openstreetmap.org/node/2185158197"},"geometry":{"type":"Point","coordinates":[147.3698623,-42.8656403]}},{"type":"Feature","properties":{"pinType":"post_office","name":"Australia Post","osmUrl":"https://www.openstreetmap.org/node/2502799494"},"geometry":{"type":"Point","coordinates":[147.3098955,-42.9762753]}},{"type":"Feature","properties":{"pinType":"post_office","name":"Australia Post","url":"https://auspost.com.au/","osmUrl":"https://www.openstreetmap.org/node/2576580821"},"geometry":{"type":"Point","coordinates":[147.2451036,-42.7383957]}},{"type":"Feature","properties":{"pinType":"post_office","name":"Bagdad Post Office","osmUrl":"https://www.openstreetmap.org/node/4382793914"},"geometry":{"type":"Point","coordinates":[147.2232348,-42.6319344]}},{"type":"Feature","properties":{"pinType":"post_office","name":"Australia Post","osmUrl":"https://www.openstreetmap.org/node/4462480767"},"geometry":{"type":"Point","coordinates":[147.3190373,-42.9986182]}},{"type":"Feature","properties":{"pinType":"post_office","name":"West Hobart Post Office","osmUrl":"https://www.openstreetmap.org/node/6568767678"},"geometry":{"type":"Point","coordinates":[147.3148781,-42.8838914]}},{"type":"Feature","properties":{"pinType":"post_office","name":"Brighton Post Office","osmUrl":"https://www.openstreetmap.org/node/9523114176"},"geometry":{"type":"Point","coordinates":[147.2526602,-42.6986498]}},{"type":"Feature","properties":{"pinType":"post_office","name":"Glebe Hill Hub","osmUrl":"https://www.openstreetmap.org/node/9901279614"},"geometry":{"type":"Point","coordinates":[147.4278242,-42.8879324]}},{"type":"Feature","properties":{"pinType":"post_office","name":"News Extra","osmUrl":"https://www.openstreetmap.org/node/10220700265"},"geometry":{"type":"Point","coordinates":[147.3050575,-42.8558628]}},{"type":"Feature","properties":{"pinType":"post_office","name":"Kettering Post Office","osmUrl":"https://www.openstreetmap.org/node/11472347696"},"geometry":{"type":"Point","coordinates":[147.2452786,-43.1236908]}},{"type":"Feature","properties":{"pinType":"post_office","name":"Howrah Local Post Office - Auspost","osmUrl":"https://www.openstreetmap.org/node/12941680318"},"geometry":{"type":"Point","coordinates":[147.4072646,-42.8800968]}},{"type":"Feature","properties":{"pinType":"post_office","name":"Margate LPO","osmUrl":"https://www.openstreetmap.org/node/13113171445"},"geometry":{"type":"Point","coordinates":[147.2604033,-43.0258707]}},{"type":"Feature","properties":{"pinType":"post_office","name":"Glenorchy Post Shop","url":"https://auspost.com.au/locate/post-office/tas/glenorchy/7010/glenorchy-post-shop-733319","osmUrl":"https://www.openstreetmap.org/node/13124409015"},"geometry":{"type":"Point","coordinates":[147.2755949,-42.8332248]}},{"type":"Feature","properties":{"pinType":"post_office","name":"Cygnet LPO","osmUrl":"https://www.openstreetmap.org/node/13599782326"},"geometry":{"type":"Point","coordinates":[147.0753797,-43.1585892]}},{"type":"Feature","properties":{"pinType":"post_office","name":"General Post Office","osmUrl":"https://www.openstreetmap.org/way/205290140"},"geometry":{"type":"Point","coordinates":[147.330124,-42.8823347]}},{"type":"Feature","properties":{"pinType":"post_office","name":"Moonah Post Office","osmUrl":"https://www.openstreetmap.org/way/228923228"},"geometry":{"type":"Point","coordinates":[147.2953622,-42.8476982]}},{"type":"Feature","properties":{"pinType":"post_office","name":"New Norfolk Post Office","osmUrl":"https://www.openstreetmap.org/way/247780938"},"geometry":{"type":"Point","coordinates":[147.0633138,-42.7805068]}},{"type":"Feature","properties":{"pinType":"post_office","name":"Grove LPO","osmUrl":"https://www.openstreetmap.org/way/253115439"},"geometry":{"type":"Point","coordinates":[147.0970013,-42.9813456]}},{"type":"Feature","properties":{"pinType":"post_office","name":"North Hobart Post Office","osmUrl":"https://www.openstreetmap.org/way/277998143"},"geometry":{"type":"Point","coordinates":[147.3142353,-42.872259]}},{"type":"Feature","properties":{"pinType":"post_office","name":"Lenah Valley Newsagency & Post Office","osmUrl":"https://www.openstreetmap.org/way/326651468"},"geometry":{"type":"Point","coordinates":[147.2965359,-42.8659654]}},{"type":"Feature","properties":{"pinType":"post_office","name":"Lindisfarne LPO","osmUrl":"https://www.openstreetmap.org/way/391855674"},"geometry":{"type":"Point","coordinates":[147.352699,-42.8475959]}},{"type":"Feature","properties":{"pinType":"post_office","name":"Risdon Vale Post Office","osmUrl":"https://www.openstreetmap.org/way/502553330"},"geometry":{"type":"Point","coordinates":[147.3515825,-42.8133198]}},{"type":"Feature","properties":{"pinType":"post_office","name":"Huonville Post Office","osmUrl":"https://www.openstreetmap.org/way/692660729"},"geometry":{"type":"Point","coordinates":[147.0487857,-43.0306551]}},{"type":"Feature","properties":{"pinType":"post_office","name":"Snug Post Office","osmUrl":"https://www.openstreetmap.org/way/729458956"},"geometry":{"type":"Point","coordinates":[147.2550016,-43.065501]}},{"type":"Feature","properties":{"pinType":"post_office","name":"Warrane Newsagency and LPO","osmUrl":"https://www.openstreetmap.org/way/1047541654"},"geometry":{"type":"Point","coordinates":[147.3770784,-42.8601676]}},{"type":"Feature","properties":{"pinType":"post_office","name":"Campania LPO","osmUrl":"https://www.openstreetmap.org/way/1457216285"},"geometry":{"type":"Point","coordinates":[147.4236098,-42.6616413]}},{"type":"Feature","properties":{"pinType":"pathology_lab","name":"Radiology Tasmania","url":"https://www.radiologytasmania.com.au/","osmUrl":"https://www.openstreetmap.org/way/928031018"},"geometry":{"type":"Point","coordinates":[147.318774,-42.8919606]}},{"type":"Feature","properties":{"pinType":"bank","name":"Westpac","osmUrl":"https://www.openstreetmap.org/node/797217771"},"geometry":{"type":"Point","coordinates":[147.3279877,-42.8949417]}},{"type":"Feature","properties":{"pinType":"bank","name":"ANZ","osmUrl":"https://www.openstreetmap.org/node/797217772"},"geometry":{"type":"Point","coordinates":[147.3273099,-42.8949102]}},{"type":"Feature","properties":{"pinType":"bank","name":"Bendigo Bank","url":"https://www.bendigobank.com.au/","osmUrl":"https://www.openstreetmap.org/node/943419698"},"geometry":{"type":"Point","coordinates":[147.3269467,-42.8829335]}},{"type":"Feature","properties":{"pinType":"bank","name":"ANZ","url":"https://www.anz.com.au/","osmUrl":"https://www.openstreetmap.org/node/1477360022"},"geometry":{"type":"Point","coordinates":[147.3097223,-42.9756944]}},{"type":"Feature","properties":{"pinType":"bank","name":"Commonwealth Bank","url":"https://www.commbank.com.au/","osmUrl":"https://www.openstreetmap.org/node/1477360025"},"geometry":{"type":"Point","coordinates":[147.3092495,-42.9757941]}},{"type":"Feature","properties":{"pinType":"bank","name":"Westpac","url":"https://www.westpac.com.au/","osmUrl":"https://www.openstreetmap.org/node/1477360032"},"geometry":{"type":"Point","coordinates":[147.3094743,-42.9757481]}},{"type":"Feature","properties":{"pinType":"bank","name":"NAB","url":"https://www.nab.com.au/","osmUrl":"https://www.openstreetmap.org/node/1845276461"},"geometry":{"type":"Point","coordinates":[147.3274762,-42.8812502]}},{"type":"Feature","properties":{"pinType":"bank","name":"Commonwealth Bank","url":"https://www.commbank.com.au/","osmUrl":"https://www.openstreetmap.org/node/2168587702"},"geometry":{"type":"Point","coordinates":[147.3697873,-42.8658292]}},{"type":"Feature","properties":{"pinType":"bank","name":"Westpac","url":"https://www.westpac.com.au/","osmUrl":"https://www.openstreetmap.org/node/2168587760"},"geometry":{"type":"Point","coordinates":[147.3697332,-42.8660637]}},{"type":"Feature","properties":{"pinType":"bank","name":"ANZ","url":"https://www.anz.com.au/","osmUrl":"https://www.openstreetmap.org/node/2196784427"},"geometry":{"type":"Point","coordinates":[147.3155369,-42.8735285]}},{"type":"Feature","properties":{"pinType":"bank","name":"Bendigo Bank","osmUrl":"https://www.openstreetmap.org/node/2248057539"},"geometry":{"type":"Point","coordinates":[146.927151,-43.1634982]}},{"type":"Feature","properties":{"pinType":"bank","name":"Westpac","osmUrl":"https://www.openstreetmap.org/node/2352996777"},"geometry":{"type":"Point","coordinates":[147.562874,-42.7816844]}},{"type":"Feature","properties":{"pinType":"bank","name":"Commonwealth Bank","osmUrl":"https://www.openstreetmap.org/node/3933157664"},"geometry":{"type":"Point","coordinates":[147.0637858,-42.7807272]}},{"type":"Feature","properties":{"pinType":"bank","name":"MyState","osmUrl":"https://www.openstreetmap.org/node/3933157666"},"geometry":{"type":"Point","coordinates":[147.0636154,-42.7808133]}},{"type":"Feature","properties":{"pinType":"bank","name":"MyState Bank","osmUrl":"https://www.openstreetmap.org/node/7986313395"},"geometry":{"type":"Point","coordinates":[147.3220825,-42.882313]}},{"type":"Feature","properties":{"pinType":"bank","name":"ANZ","osmUrl":"https://www.openstreetmap.org/node/10172442417"},"geometry":{"type":"Point","coordinates":[147.3688772,-42.8656385]}},{"type":"Feature","properties":{"pinType":"bank","name":"Westpac","osmUrl":"https://www.openstreetmap.org/node/10637710575"},"geometry":{"type":"Point","coordinates":[147.3280155,-42.8807692]}},{"type":"Feature","properties":{"pinType":"bank","name":"Suncorp","osmUrl":"https://www.openstreetmap.org/node/10650860712"},"geometry":{"type":"Point","coordinates":[147.3265682,-42.8815764]}},{"type":"Feature","properties":{"pinType":"bank","name":"Commonwealth Bank","osmUrl":"https://www.openstreetmap.org/node/11380787983"},"geometry":{"type":"Point","coordinates":[147.3261876,-42.8819503]}},{"type":"Feature","properties":{"pinType":"bank","name":"Cygnet Community Bank","osmUrl":"https://www.openstreetmap.org/node/13596665900"},"geometry":{"type":"Point","coordinates":[147.0755038,-43.160365]}},{"type":"Feature","properties":{"pinType":"bank","name":"Commonwealth Bank","url":"https://www.commbank.com.au/","osmUrl":"https://www.openstreetmap.org/way/277998141"},"geometry":{"type":"Point","coordinates":[147.3153735,-42.8727931]}},{"type":"Feature","properties":{"pinType":"bank","name":"ANZ","osmUrl":"https://www.openstreetmap.org/way/692660724"},"geometry":{"type":"Point","coordinates":[147.0480512,-43.0310256]}},{"type":"Feature","properties":{"pinType":"bank","name":"Bendigo Bank","osmUrl":"https://www.openstreetmap.org/way/692675556"},"geometry":{"type":"Point","coordinates":[147.0473495,-43.0319925]}},{"type":"Feature","properties":{"pinType":"bank","name":"Commonwealth Bank","osmUrl":"https://www.openstreetmap.org/way/804041930"},"geometry":{"type":"Point","coordinates":[147.2747905,-42.8326938]}},{"type":"Feature","properties":{"pinType":"tafe","name":"TasTAFE Campbell Street Campus","url":"https://www.tastafe.tas.edu.au/","osmUrl":"https://www.openstreetmap.org/way/35201296"},"geometry":{"type":"Point","coordinates":[147.3288468,-42.8777804]}},{"type":"Feature","properties":{"pinType":"tafe","name":"TasTAFE (Hobart Drysdale Campus)","url":"https://www.tastafe.tas.edu.au/campuses/drysdale-campus-hobart","osmUrl":"https://www.openstreetmap.org/way/114368587"},"geometry":{"type":"Point","coordinates":[147.3290123,-42.8815544]}},{"type":"Feature","properties":{"pinType":"tafe","name":"St James Catholic College","osmUrl":"https://www.openstreetmap.org/way/161526013"},"geometry":{"type":"Point","coordinates":[147.07639,-43.1626342]}},{"type":"Feature","properties":{"pinType":"tafe","name":"Rosny College","osmUrl":"https://www.openstreetmap.org/way/207161427"},"geometry":{"type":"Point","coordinates":[147.3652623,-42.8692832]}},{"type":"Feature","properties":{"pinType":"tafe","name":"TasTAFE","url":"https://www.tastafe.tas.edu.au/","osmUrl":"https://www.openstreetmap.org/way/899856433"},"geometry":{"type":"Point","coordinates":[147.3071093,-42.8283984]}},{"type":"Feature","properties":{"pinType":"tafe","name":"TasTAFE - Clarence Campus","url":"https://www.tastafe.tas.edu.au/campuses/clarence-campus","osmUrl":"https://www.openstreetmap.org/way/1072860303"},"geometry":{"type":"Point","coordinates":[147.37974,-42.8504057]}},{"type":"Feature","properties":{"pinType":"university","name":"University Centre","osmUrl":"https://www.openstreetmap.org/node/9883300717"},"geometry":{"type":"Point","coordinates":[147.3259908,-42.9042513]}},{"type":"Feature","properties":{"pinType":"university","name":"Utas Lounge","osmUrl":"https://www.openstreetmap.org/node/9883300718"},"geometry":{"type":"Point","coordinates":[147.3255221,-42.9040013]}},{"type":"Feature","properties":{"pinType":"university","name":"University of Tasmania","osmUrl":"https://www.openstreetmap.org/way/23921183"},"geometry":{"type":"Point","coordinates":[147.3203812,-42.9067259]}},{"type":"Feature","properties":{"pinType":"university","name":"Tasmanian College of the Arts","url":"https://www.utas.edu.au/art-viscom","osmUrl":"https://www.openstreetmap.org/way/171630882"},"geometry":{"type":"Point","coordinates":[147.3366939,-42.8816128]}},{"type":"Feature","properties":{"pinType":"university","name":"IMAS Building","osmUrl":"https://www.openstreetmap.org/way/189319045"},"geometry":{"type":"Point","coordinates":[147.3357871,-42.8861469]}},{"type":"Feature","properties":{"pinType":"university","name":"Medical Science Precinct","osmUrl":"https://www.openstreetmap.org/way/224363101"},"geometry":{"type":"Point","coordinates":[147.3298079,-42.8783873]}},{"type":"Feature","properties":{"pinType":"supermarket","name":"Woolworths","url":"https://www.woolworths.com.au/","osmUrl":"https://www.openstreetmap.org/node/259143486"},"geometry":{"type":"Point","coordinates":[147.302574,-42.9797232]}},{"type":"Feature","properties":{"pinType":"cafe_restaurant","name":"San Churro","url":"https://www.sanchurro.com/store/san-churro-salamanca/","osmUrl":"https://www.openstreetmap.org/node/319714124"},"geometry":{"type":"Point","coordinates":[147.3324859,-42.8875249]}},{"type":"Feature","properties":{"pinType":"cafe_restaurant","name":"Hog's Breath Cafe","url":"https://www.hogsbreath.com.au/location/hobart/","osmUrl":"https://www.openstreetmap.org/node/320824265"},"geometry":{"type":"Point","coordinates":[147.3345459,-42.8792841]}},{"type":"Feature","properties":{"pinType":"gym_leisure","name":"Olinda Grove Soccer Fields","osmUrl":"https://www.openstreetmap.org/node/331437584"},"geometry":{"type":"Point","coordinates":[147.3136667,-42.91243]}},{"type":"Feature","properties":{"pinType":"cafe_restaurant","name":"La Bella Pizza","osmUrl":"https://www.openstreetmap.org/node/331439367"},"geometry":{"type":"Point","coordinates":[147.3271149,-42.8952104]}},{"type":"Feature","properties":{"pinType":"cafe_restaurant","name":"Europa Greek Taverna","osmUrl":"https://www.openstreetmap.org/node/331439390"},"geometry":{"type":"Point","coordinates":[147.3260586,-42.8944609]}},{"type":"Feature","properties":{"pinType":"supermarket","name":"Mykonos","osmUrl":"https://www.openstreetmap.org/node/331439425"},"geometry":{"type":"Point","coordinates":[147.3261673,-42.8945512]}},{"type":"Feature","properties":{"pinType":"cafe_restaurant","name":"Ju Kitchen","osmUrl":"https://www.openstreetmap.org/node/331439494"},"geometry":{"type":"Point","coordinates":[147.3257702,-42.8948015]}},{"type":"Feature","properties":{"pinType":"cafe_restaurant","name":"T42","url":"https://t42hobart.com.au/","osmUrl":"https://www.openstreetmap.org/node/331441340"},"geometry":{"type":"Point","coordinates":[147.3337277,-42.8840787]}},{"type":"Feature","properties":{"pinType":"cafe_restaurant","name":"McDonald's","url":"https://www.mcdonalds.com.au/","osmUrl":"https://www.openstreetmap.org/node/360579339"},"geometry":{"type":"Point","coordinates":[147.5647574,-42.7814528]}},{"type":"Feature","properties":{"pinType":"cafe_restaurant","name":"63 Degree Espresso & Bar","osmUrl":"https://www.openstreetmap.org/node/457896925"},"geometry":{"type":"Point","coordinates":[147.3331762,-42.8900289]}},{"type":"Feature","properties":{"pinType":"cafe_restaurant","name":"cafe restaurant","osmUrl":"https://www.openstreetmap.org/node/476028280"},"geometry":{"type":"Point","coordinates":[147.4064025,-42.8792481]}},{"type":"Feature","properties":{"pinType":"cafe_restaurant","name":"cafe restaurant","osmUrl":"https://www.openstreetmap.org/node/476028283"},"geometry":{"type":"Point","coordinates":[147.3371759,-42.901916]}},{"type":"Feature","properties":{"pinType":"cafe_restaurant","name":"Domino's","url":"https://www.dominos.com.au/","osmUrl":"https://www.openstreetmap.org/node/476028290"},"geometry":{"type":"Point","coordinates":[147.3705196,-42.8653491]}},{"type":"Feature","properties":{"pinType":"pharmacy","name":"pharmacy","osmUrl":"https://www.openstreetmap.org/node/476031086"},"geometry":{"type":"Point","coordinates":[147.3612781,-42.850928]}},{"type":"Feature","properties":{"pinType":"cafe_restaurant","name":"Wendy's","osmUrl":"https://www.openstreetmap.org/node/476031144"},"geometry":{"type":"Point","coordinates":[147.305382,-42.855913]}},{"type":"Feature","properties":{"pinType":"supermarket","name":"Coles","url":"https://www.coles.com.au/","osmUrl":"https://www.openstreetmap.org/node/476031171"},"geometry":{"type":"Point","coordinates":[147.3061599,-42.8556046]}},{"type":"Feature","properties":{"pinType":"pharmacy","name":"Chemist Warehouse","url":"https://www.chemistwarehouse.com.au/","osmUrl":"https://www.openstreetmap.org/node/476031236"},"geometry":{"type":"Point","coordinates":[147.3049859,-42.8559968]}},{"type":"Feature","properties":{"pinType":"cafe_restaurant","name":"Legs 'N' Breasts","osmUrl":"https://www.openstreetmap.org/node/476037026"},"geometry":{"type":"Point","coordinates":[147.4475977,-42.9017166]}},{"type":"Feature","properties":{"pinType":"supermarket","name":"Hill Street Grocer","osmUrl":"https://www.openstreetmap.org/node/476040026"},"geometry":{"type":"Point","coordinates":[147.4860254,-42.9140361]}},{"type":"Feature","properties":{"pinType":"cafe_restaurant","name":"KFC","osmUrl":"https://www.openstreetmap.org/node/476269252"},"geometry":{"type":"Point","coordinates":[147.3704475,-42.8647813]}},{"type":"Feature","properties":{"pinType":"cafe_restaurant","name":"Smith Street Store","osmUrl":"https://www.openstreetmap.org/node/497737394"},"geometry":{"type":"Point","coordinates":[147.3183397,-42.8724144]}},{"type":"Feature","properties":{"pinType":"supermarket","name":"Seven Mile Beach Store","osmUrl":"https://www.openstreetmap.org/node/568390886"},"geometry":{"type":"Point","coordinates":[147.5053299,-42.8613506]}},{"type":"Feature","properties":{"pinType":"cafe_restaurant","name":"Subway","url":"https://www.subway.com.au/","osmUrl":"https://www.openstreetmap.org/node/658942811"},"geometry":{"type":"Point","coordinates":[147.2943021,-42.8462367]}},{"type":"Feature","properties":{"pinType":"cafe_restaurant","name":"Banjos","url":"https://banjos.com.au/","osmUrl":"https://www.openstreetmap.org/node/698278008"},"geometry":{"type":"Point","coordinates":[147.3539984,-42.846595]}},{"type":"Feature","properties":{"pinType":"supermarket","name":"Salamanca Fresh IGA","osmUrl":"https://www.openstreetmap.org/node/698278010"},"geometry":{"type":"Point","coordinates":[147.3704878,-42.8751386]}},{"type":"Feature","properties":{"pinType":"supermarket","name":"Woolworths","url":"https://www.woolworths.com.au/","osmUrl":"https://www.openstreetmap.org/node/764726553"},"geometry":{"type":"Point","coordinates":[147.2939035,-42.8461721]}},{"type":"Feature","properties":{"pinType":"cafe_restaurant","name":"Ausing","osmUrl":"https://www.openstreetmap.org/node/764730037"},"geometry":{"type":"Point","coordinates":[147.2968072,-42.8489195]}},{"type":"Feature","properties":{"pinType":"cafe_restaurant","name":"Jackman & McRoss","osmUrl":"https://www.openstreetmap.org/node/764736363"},"geometry":{"type":"Point","coordinates":[147.304466,-42.859107]}},{"type":"Feature","properties":{"pinType":"cafe_restaurant","name":"Oriental Restaurant","url":"https://orientalrestaurant.wixsite.com/sandybay","osmUrl":"https://www.openstreetmap.org/node/792283633"},"geometry":{"type":"Point","coordinates":[147.3262332,-42.8940797]}},{"type":"Feature","properties":{"pinType":"cafe_restaurant","name":"cafe restaurant","osmUrl":"https://www.openstreetmap.org/node/795253587"},"geometry":{"type":"Point","coordinates":[147.4920775,-42.9086291]}},{"type":"Feature","properties":{"pinType":"cafe_restaurant","name":"Driftwood Restaurant","url":"https://driftwoodrestaurant.com.au/","osmUrl":"https://www.openstreetmap.org/node/795253588"},"geometry":{"type":"Point","coordinates":[147.4931549,-42.9112548]}},{"type":"Feature","properties":{"pinType":"pharmacy","name":"Complete Care Pharmacy","osmUrl":"https://www.openstreetmap.org/node/797215465"},"geometry":{"type":"Point","coordinates":[147.3156748,-42.8928252]}},{"type":"Feature","properties":{"pinType":"cafe_restaurant","name":"La Provencal","osmUrl":"https://www.openstreetmap.org/node/797215466"},"geometry":{"type":"Point","coordinates":[147.3127797,-42.8932191]}},{"type":"Feature","properties":{"pinType":"cafe_restaurant","name":"South Hobart Foodstore","osmUrl":"https://www.openstreetmap.org/node/797215484"},"geometry":{"type":"Point","coordinates":[147.3159618,-42.8927644]}},{"type":"Feature","properties":{"pinType":"supermarket","name":"Hill Street Grocer South Hobart (Salad Bowl)","url":"https://hillstreetgrocer.com/","osmUrl":"https://www.openstreetmap.org/node/797215496"},"geometry":{"type":"Point","coordinates":[147.3152665,-42.8929551]}},{"type":"Feature","properties":{"pinType":"pharmacy","name":"Magnet Court Chemmart Pharmacy","osmUrl":"https://www.openstreetmap.org/node/797217769"},"geometry":{"type":"Point","coordinates":[147.327793,-42.8952408]}},{"type":"Feature","properties":{"pinType":"pharmacy","name":"TerryWhite Chemmart","osmUrl":"https://www.openstreetmap.org/node/797217778"},"geometry":{"type":"Point","coordinates":[147.3270334,-42.8951644]}},{"type":"Feature","properties":{"pinType":"pharmacy","name":"Chemist Warehouse","osmUrl":"https://www.openstreetmap.org/node/797244167"},"geometry":{"type":"Point","coordinates":[147.331605,-42.8876368]}},{"type":"Feature","properties":{"pinType":"supermarket","name":"Wursthaus Kitchen","url":"https://wursthauskitchen.com.au/","osmUrl":"https://www.openstreetmap.org/node/797244185"},"geometry":{"type":"Point","coordinates":[147.3315337,-42.8871005]}},{"type":"Feature","properties":{"pinType":"cafe_restaurant","name":"Harbour Lights","url":"https://www.harbourlightscafe.com.au/","osmUrl":"https://www.openstreetmap.org/node/797244193"},"geometry":{"type":"Point","coordinates":[147.3312347,-42.8846483]}},{"type":"Feature","properties":{"pinType":"cafe_restaurant","name":"Portabello Road","osmUrl":"https://www.openstreetmap.org/node/797244211"},"geometry":{"type":"Point","coordinates":[147.3303167,-42.8847707]}},{"type":"Feature","properties":{"pinType":"cafe_restaurant","name":"Dr Coffee","osmUrl":"https://www.openstreetmap.org/node/797244301"},"geometry":{"type":"Point","coordinates":[147.3314346,-42.8867711]}},{"type":"Feature","properties":{"pinType":"cafe_restaurant","name":"Retro Cafe","osmUrl":"https://www.openstreetmap.org/node/797244315"},"geometry":{"type":"Point","coordinates":[147.3316115,-42.8868116]}},{"type":"Feature","properties":{"pinType":"cafe_restaurant","name":"Drifters","osmUrl":"https://www.openstreetmap.org/node/797244321"},"geometry":{"type":"Point","coordinates":[147.3315854,-42.8869875]}},{"type":"Feature","properties":{"pinType":"cafe_restaurant","name":"Solstice","osmUrl":"https://www.openstreetmap.org/node/797244327"},"geometry":{"type":"Point","coordinates":[147.3312146,-42.8867268]}},{"type":"Feature","properties":{"pinType":"cafe_restaurant","name":"Machine Laundry Cafe","osmUrl":"https://www.openstreetmap.org/node/797244429"},"geometry":{"type":"Point","coordinates":[147.3333247,-42.8875651]}},{"type":"Feature","properties":{"pinType":"cafe_restaurant","name":"Jackman and McRoss","osmUrl":"https://www.openstreetmap.org/node/797244500"},"geometry":{"type":"Point","coordinates":[147.3334327,-42.8896749]}},{"type":"Feature","properties":{"pinType":"supermarket","name":"Coles","url":"https://www.coles.com.au/find-stores/coles/tas/kingston-7629","osmUrl":"https://www.openstreetmap.org/node/874976366"},"geometry":{"type":"Point","coordinates":[147.3112534,-42.9744595]}},{"type":"Feature","properties":{"pinType":"cafe_restaurant","name":"Ready Lunch","osmUrl":"https://www.openstreetmap.org/node/943638413"},"geometry":{"type":"Point","coordinates":[147.3278109,-42.881308]}},{"type":"Feature","properties":{"pinType":"cafe_restaurant","name":"Jack Loves Red","osmUrl":"https://www.openstreetmap.org/node/990510031"},"geometry":{"type":"Point","coordinates":[147.3250237,-43.0016069]}},{"type":"Feature","properties":{"pinType":"supermarket","name":"supermarket","osmUrl":"https://www.openstreetmap.org/node/990510706"},"geometry":{"type":"Point","coordinates":[147.3186904,-42.9986525]}},{"type":"Feature","properties":{"pinType":"supermarket","name":"supermarket","osmUrl":"https://www.openstreetmap.org/node/990510707"},"geometry":{"type":"Point","coordinates":[147.3186544,-42.9985133]}},{"type":"Feature","properties":{"pinType":"pharmacy","name":"Terry white chemist","osmUrl":"https://www.openstreetmap.org/node/990510708"},"geometry":{"type":"Point","coordinates":[147.3192193,-42.9984917]}},{"type":"Feature","properties":{"pinType":"cafe_restaurant","name":"Kingston Beach Takeaway","osmUrl":"https://www.openstreetmap.org/node/990511494"},"geometry":{"type":"Point","coordinates":[147.3242612,-42.9816593]}},{"type":"Feature","properties":{"pinType":"cafe_restaurant","name":"Robbie Brown's","osmUrl":"https://www.openstreetmap.org/node/990511524"},"geometry":{"type":"Point","coordinates":[147.3244408,-42.9814576]}},{"type":"Feature","properties":{"pinType":"supermarket","name":"Coles","url":"https://www.coles.com.au/","osmUrl":"https://www.openstreetmap.org/node/1055752546"},"geometry":{"type":"Point","coordinates":[147.2431521,-42.7347376]}},{"type":"Feature","properties":{"pinType":"pharmacy","name":"Amcal Pharmacy","osmUrl":"https://www.openstreetmap.org/node/1150254560"},"geometry":{"type":"Point","coordinates":[147.7430435,-43.0978759]}},{"type":"Feature","properties":{"pinType":"cafe_restaurant","name":"Subway","url":"https://www.subway.com.au/","osmUrl":"https://www.openstreetmap.org/node/1155811580"},"geometry":{"type":"Point","coordinates":[147.2776845,-42.8346536]}},{"type":"Feature","properties":{"pinType":"supermarket","name":"Woolworths","url":"https://www.woolworths.com.au/","osmUrl":"https://www.openstreetmap.org/node/1155825329"},"geometry":{"type":"Point","coordinates":[147.2759414,-42.8350046]}},{"type":"Feature","properties":{"pinType":"pharmacy","name":"Guardian","osmUrl":"https://www.openstreetmap.org/node/1155825330"},"geometry":{"type":"Point","coordinates":[147.2762815,-42.8347381]}},{"type":"Feature","properties":{"pinType":"supermarket","name":"Lord of Pizzas and Cafe","osmUrl":"https://www.openstreetmap.org/node/1155970413"},"geometry":{"type":"Point","coordinates":[147.3320508,-42.8895829]}},{"type":"Feature","properties":{"pinType":"pharmacy","name":"Lauderdale Amcal Pharmacy","osmUrl":"https://www.openstreetmap.org/node/1227402556"},"geometry":{"type":"Point","coordinates":[147.4834353,-42.9083616]}},{"type":"Feature","properties":{"pinType":"supermarket","name":"Adam's Store","osmUrl":"https://www.openstreetmap.org/node/1286264809"},"geometry":{"type":"Point","coordinates":[147.3072154,-42.8764273]}},{"type":"Feature","properties":{"pinType":"cafe_restaurant","name":"Zest The Library Cafe","osmUrl":"https://www.openstreetmap.org/node/1295635486"},"geometry":{"type":"Point","coordinates":[147.3247062,-42.8819605]}},{"type":"Feature","properties":{"pinType":"cafe_restaurant","name":"Hawthorn Drive Store","osmUrl":"https://www.openstreetmap.org/node/1354294778"},"geometry":{"type":"Point","coordinates":[147.3053705,-42.992689]}},{"type":"Feature","properties":{"pinType":"supermarket","name":"Woolworths","url":"https://www.woolworths.com.au/","osmUrl":"https://www.openstreetmap.org/node/1437209172"},"geometry":{"type":"Point","coordinates":[147.5638638,-42.7807128]}},{"type":"Feature","properties":{"pinType":"cafe_restaurant","name":"Legs'n'breasts","osmUrl":"https://www.openstreetmap.org/node/1438083159"},"geometry":{"type":"Point","coordinates":[147.5627271,-42.7820971]}},{"type":"Feature","properties":{"pinType":"supermarket","name":"Woolworths","url":"https://www.woolworths.com.au/","osmUrl":"https://www.openstreetmap.org/node/1477282994"},"geometry":{"type":"Point","coordinates":[147.2553394,-42.7906521]}},{"type":"Feature","properties":{"pinType":"supermarket","name":"Woolworths","url":"https://www.woolworths.com.au/","osmUrl":"https://www.openstreetmap.org/node/1559784047"},"geometry":{"type":"Point","coordinates":[147.2445577,-42.7384216]}},{"type":"Feature","properties":{"pinType":"supermarket","name":"Woolworths","url":"https://www.woolworths.com.au/","osmUrl":"https://www.openstreetmap.org/node/1561048910"},"geometry":{"type":"Point","coordinates":[147.3285455,-42.8806041]}},{"type":"Feature","properties":{"pinType":"supermarket","name":"Coles","url":"https://www.coles.com.au/","osmUrl":"https://www.openstreetmap.org/node/1589051112"},"geometry":{"type":"Point","coordinates":[147.5659321,-42.782713]}},{"type":"Feature","properties":{"pinType":"cafe_restaurant","name":"Lucky Ducks","osmUrl":"https://www.openstreetmap.org/node/1631224165"},"geometry":{"type":"Point","coordinates":[147.7421406,-43.1010174]}},{"type":"Feature","properties":{"pinType":"cafe_restaurant","name":"The Cannery","url":"https://www.facebook.com/people/The-Cannery-Dunalley/100039993646177/","osmUrl":"https://www.openstreetmap.org/node/1631224173"},"geometry":{"type":"Point","coordinates":[147.8145659,-42.8877914]}},{"type":"Feature","properties":{"pinType":"cafe_restaurant","name":"Ciuccio","osmUrl":"https://www.openstreetmap.org/node/1793902124"},"geometry":{"type":"Point","coordinates":[147.3328615,-42.8875482]}},{"type":"Feature","properties":{"pinType":"supermarket","name":"Hill Street Grocer New Town","url":"https://hillstreetgrocer.com/","osmUrl":"https://www.openstreetmap.org/node/1832794838"},"geometry":{"type":"Point","coordinates":[147.3114253,-42.8680108]}},{"type":"Feature","properties":{"pinType":"pharmacy","name":"Claremont Plaza Advantage Pharmacy","osmUrl":"https://www.openstreetmap.org/node/1875425857"},"geometry":{"type":"Point","coordinates":[147.2551177,-42.790957]}},{"type":"Feature","properties":{"pinType":"pharmacy","name":"Amcal","osmUrl":"https://www.openstreetmap.org/node/1892916336"},"geometry":{"type":"Point","coordinates":[147.4071827,-42.8801768]}},{"type":"Feature","properties":{"pinType":"supermarket","name":"Woolworths","url":"https://www.woolworths.com.au/","osmUrl":"https://www.openstreetmap.org/node/1892916432"},"geometry":{"type":"Point","coordinates":[147.4068759,-42.8804821]}},{"type":"Feature","properties":{"pinType":"cafe_restaurant","name":"Grange Fish and Chips","osmUrl":"https://www.openstreetmap.org/node/1977400695"},"geometry":{"type":"Point","coordinates":[147.432046,-42.8968349]}},{"type":"Feature","properties":{"pinType":"supermarket","name":"Rokeby IGA","osmUrl":"https://www.openstreetmap.org/node/1977400704"},"geometry":{"type":"Point","coordinates":[147.4320085,-42.8966766]}},{"type":"Feature","properties":{"pinType":"cafe_restaurant","name":"Slice Pizza","osmUrl":"https://www.openstreetmap.org/node/1977400726"},"geometry":{"type":"Point","coordinates":[147.4463969,-42.9014149]}},{"type":"Feature","properties":{"pinType":"pharmacy","name":"pharmacy","osmUrl":"https://www.openstreetmap.org/node/1977400727"},"geometry":{"type":"Point","coordinates":[147.4473415,-42.9016402]}},{"type":"Feature","properties":{"pinType":"supermarket","name":"supermarket","osmUrl":"https://www.openstreetmap.org/node/1977400733"},"geometry":{"type":"Point","coordinates":[147.4465406,-42.9014562]}},{"type":"Feature","properties":{"pinType":"cafe_restaurant","name":"cafe restaurant","osmUrl":"https://www.openstreetmap.org/node/2003254960"},"geometry":{"type":"Point","coordinates":[147.8503934,-43.1455797]}},{"type":"Feature","properties":{"pinType":"pharmacy","name":"Priceline Pharmacy","osmUrl":"https://www.openstreetmap.org/node/2077397439"},"geometry":{"type":"Point","coordinates":[147.2778765,-42.8335211]}},{"type":"Feature","properties":{"pinType":"cafe_restaurant","name":"Flavour of India","url":"http://www.flavourofindia.com.au","osmUrl":"https://www.openstreetmap.org/node/2084092284"},"geometry":{"type":"Point","coordinates":[147.324477,-42.887341]}},{"type":"Feature","properties":{"pinType":"cafe_restaurant","name":"Hungry Jack's","url":"https://www.hungryjacks.com.au/","osmUrl":"https://www.openstreetmap.org/node/2084263507"},"geometry":{"type":"Point","coordinates":[147.3212302,-42.8914109]}},{"type":"Feature","properties":{"pinType":"supermarket","name":"supermarket","osmUrl":"https://www.openstreetmap.org/node/2088654349"},"geometry":{"type":"Point","coordinates":[147.8723958,-42.5596089]}},{"type":"Feature","properties":{"pinType":"gym_leisure","name":"Kingston Twin Ovals / Kingborough Football Club","osmUrl":"https://www.openstreetmap.org/node/2089545084"},"geometry":{"type":"Point","coordinates":[147.2858102,-42.9754085]}},{"type":"Feature","properties":{"pinType":"gym_leisure","name":"Kingston Twin Ovals / Kingborough Cricket Club","osmUrl":"https://www.openstreetmap.org/node/2089546325"},"geometry":{"type":"Point","coordinates":[147.2880633,-42.9750081]}},{"type":"Feature","properties":{"pinType":"gym_leisure","name":"Cygnet Recreation Ground","osmUrl":"https://www.openstreetmap.org/node/2092044265"},"geometry":{"type":"Point","coordinates":[147.0765519,-43.1565187]}},{"type":"Feature","properties":{"pinType":"cafe_restaurant","name":"Touch Of Asia","osmUrl":"https://www.openstreetmap.org/node/2125726125"},"geometry":{"type":"Point","coordinates":[147.327919,-42.89535]}},{"type":"Feature","properties":{"pinType":"supermarket","name":"supermarket","osmUrl":"https://www.openstreetmap.org/node/2125895336"},"geometry":{"type":"Point","coordinates":[147.2844499,-42.8433323]}},{"type":"Feature","properties":{"pinType":"cafe_restaurant","name":"cafe restaurant","osmUrl":"https://www.openstreetmap.org/node/2143798158"},"geometry":{"type":"Point","coordinates":[147.4466006,-42.9014779]}},{"type":"Feature","properties":{"pinType":"cafe_restaurant","name":"Pilgrim Coffee","osmUrl":"https://www.openstreetmap.org/node/2150328690"},"geometry":{"type":"Point","coordinates":[147.3283435,-42.8803843]}},{"type":"Feature","properties":{"pinType":"cafe_restaurant","name":"Villino","osmUrl":"https://www.openstreetmap.org/node/2150328691"},"geometry":{"type":"Point","coordinates":[147.3256846,-42.8813729]}},{"type":"Feature","properties":{"pinType":"cafe_restaurant","name":"Cafe Trocadero","osmUrl":"https://www.openstreetmap.org/node/2152682181"},"geometry":{"type":"Point","coordinates":[147.3296395,-42.8826899]}},{"type":"Feature","properties":{"pinType":"cafe_restaurant","name":"Zimmah Coffee","osmUrl":"https://www.openstreetmap.org/node/2152682223"},"geometry":{"type":"Point","coordinates":[147.3299587,-42.8827783]}},{"type":"Feature","properties":{"pinType":"gym_leisure","name":"Indoor Basket Ball Court","osmUrl":"https://www.openstreetmap.org/node/2152728399"},"geometry":{"type":"Point","coordinates":[147.310224,-42.9913392]}},{"type":"Feature","properties":{"pinType":"gym_leisure","name":"gym leisure","osmUrl":"https://www.openstreetmap.org/node/2185169781"},"geometry":{"type":"Point","coordinates":[147.3814967,-42.8565263]}},{"type":"Feature","properties":{"pinType":"cafe_restaurant","name":"McDonald's","url":"https://www.mcdonalds.com.au/","osmUrl":"https://www.openstreetmap.org/node/2186408119"},"geometry":{"type":"Point","coordinates":[147.371185,-42.8652904]}},{"type":"Feature","properties":{"pinType":"supermarket","name":"Sunshine Centre Store","osmUrl":"https://www.openstreetmap.org/node/2195231150"},"geometry":{"type":"Point","coordinates":[147.4050474,-42.8836801]}},{"type":"Feature","properties":{"pinType":"cafe_restaurant","name":"Masaaki's Sushi","osmUrl":"https://www.openstreetmap.org/node/2248057957"},"geometry":{"type":"Point","coordinates":[146.9269476,-43.1633103]}},{"type":"Feature","properties":{"pinType":"pharmacy","name":"Geeveston Pharmacy","osmUrl":"https://www.openstreetmap.org/node/2248075200"},"geometry":{"type":"Point","coordinates":[146.9271974,-43.1643488]}},{"type":"Feature","properties":{"pinType":"cafe_restaurant","name":"Harvest and Light","url":"https://harvestandlight.com.au/","osmUrl":"https://www.openstreetmap.org/node/2248088725"},"geometry":{"type":"Point","coordinates":[146.9272296,-43.1641524]}},{"type":"Feature","properties":{"pinType":"gym_leisure","name":"Kermandie Football Club","osmUrl":"https://www.openstreetmap.org/node/2248150753"},"geometry":{"type":"Point","coordinates":[146.9386646,-43.1662265]}},{"type":"Feature","properties":{"pinType":"gym_leisure","name":"Port Huon Sports Centre","osmUrl":"https://www.openstreetmap.org/node/2248153692"},"geometry":{"type":"Point","coordinates":[146.9571365,-43.156754]}},{"type":"Feature","properties":{"pinType":"gym_leisure","name":"Sandy Bay Bowls Club","osmUrl":"https://www.openstreetmap.org/node/2315579151"},"geometry":{"type":"Point","coordinates":[147.3303309,-42.8962167]}},{"type":"Feature","properties":{"pinType":"gym_leisure","name":"Zap Fitness","url":"https://www.zapfitness.com.au/clubs/glenorchy/","osmUrl":"https://www.openstreetmap.org/node/2327779031"},"geometry":{"type":"Point","coordinates":[147.2975288,-42.8493781]}},{"type":"Feature","properties":{"pinType":"cafe_restaurant","name":"The Mill Cafe","osmUrl":"https://www.openstreetmap.org/node/2327906647"},"geometry":{"type":"Point","coordinates":[147.3312618,-42.8840327]}},{"type":"Feature","properties":{"pinType":"gym_leisure","name":"Zap Gym","osmUrl":"https://www.openstreetmap.org/node/2340084718"},"geometry":{"type":"Point","coordinates":[147.4008973,-42.8789677]}},{"type":"Feature","properties":{"pinType":"cafe_restaurant","name":"Pizza Hut","osmUrl":"https://www.openstreetmap.org/node/2340084719"},"geometry":{"type":"Point","coordinates":[147.4014713,-42.8791059]}},{"type":"Feature","properties":{"pinType":"cafe_restaurant","name":"Ja & Jon Banh Mi ( Howrah )","url":"https://jajonbanhmi.com.au/#/location/20769/Howrah","osmUrl":"https://www.openstreetmap.org/node/2340084720"},"geometry":{"type":"Point","coordinates":[147.4007434,-42.8789326]}},{"type":"Feature","properties":{"pinType":"cafe_restaurant","name":"Burger Got Soul","url":"http://www.burgergotsoul.com.au/hobart.html","osmUrl":"https://www.openstreetmap.org/node/2365333170"},"geometry":{"type":"Point","coordinates":[147.32628,-42.8942237]}},{"type":"Feature","properties":{"pinType":"cafe_restaurant","name":"The Sandy Bay Bakery & Cafe","osmUrl":"https://www.openstreetmap.org/node/2365350471"},"geometry":{"type":"Point","coordinates":[147.3263662,-42.8943018]}},{"type":"Feature","properties":{"pinType":"cafe_restaurant","name":"Brew","osmUrl":"https://www.openstreetmap.org/node/2365350472"},"geometry":{"type":"Point","coordinates":[147.326495,-42.8943981]}},{"type":"Feature","properties":{"pinType":"cafe_restaurant","name":"Zambrero","osmUrl":"https://www.openstreetmap.org/node/2365350473"},"geometry":{"type":"Point","coordinates":[147.326538,-42.8944319]}},{"type":"Feature","properties":{"pinType":"cafe_restaurant","name":"Sisterhood","osmUrl":"https://www.openstreetmap.org/node/2366581796"},"geometry":{"type":"Point","coordinates":[147.3271424,-42.8945178]}},{"type":"Feature","properties":{"pinType":"cafe_restaurant","name":"Suminato","osmUrl":"https://www.openstreetmap.org/node/2366784267"},"geometry":{"type":"Point","coordinates":[147.3269774,-42.8945843]}},{"type":"Feature","properties":{"pinType":"cafe_restaurant","name":"Little Cup Espresso","osmUrl":"https://www.openstreetmap.org/node/2366797107"},"geometry":{"type":"Point","coordinates":[147.3271069,-42.8948236]}},{"type":"Feature","properties":{"pinType":"cafe_restaurant","name":"Don Camillo","url":"https://www.doncamillorestaurant.com/","osmUrl":"https://www.openstreetmap.org/node/2366809940"},"geometry":{"type":"Point","coordinates":[147.3274943,-42.8948661]}},{"type":"Feature","properties":{"pinType":"cafe_restaurant","name":"Banjo's Bakery Cafe","osmUrl":"https://www.openstreetmap.org/node/2368368035"},"geometry":{"type":"Point","coordinates":[147.3269561,-42.895117]}},{"type":"Feature","properties":{"pinType":"cafe_restaurant","name":"LivEat","osmUrl":"https://www.openstreetmap.org/node/2375805184"},"geometry":{"type":"Point","coordinates":[147.3278574,-42.8947734]}},{"type":"Feature","properties":{"pinType":"cafe_restaurant","name":"Me Wah","osmUrl":"https://www.openstreetmap.org/node/2375805185"},"geometry":{"type":"Point","coordinates":[147.3279321,-42.8948161]}},{"type":"Feature","properties":{"pinType":"cafe_restaurant","name":"Tokyo & Seoul","osmUrl":"https://www.openstreetmap.org/node/2376695846"},"geometry":{"type":"Point","coordinates":[147.328164,-42.8956126]}},{"type":"Feature","properties":{"pinType":"cafe_restaurant","name":"White Box Noodles","url":"https://white-box-noodles.square.site/","osmUrl":"https://www.openstreetmap.org/node/2376695847"},"geometry":{"type":"Point","coordinates":[147.3281924,-42.8956733]}},{"type":"Feature","properties":{"pinType":"cafe_restaurant","name":"Written On Tea","osmUrl":"https://www.openstreetmap.org/node/2376695848"},"geometry":{"type":"Point","coordinates":[147.3282307,-42.8957248]}},{"type":"Feature","properties":{"pinType":"cafe_restaurant","name":"All Thai","url":"https://allthai.com.au/","osmUrl":"https://www.openstreetmap.org/node/2376745332"},"geometry":{"type":"Point","coordinates":[147.3284987,-42.895842]}},{"type":"Feature","properties":{"pinType":"cafe_restaurant","name":"Vina Yummy Kitchen","url":"https://vinayummykitchen.com/","osmUrl":"https://www.openstreetmap.org/node/2376751144"},"geometry":{"type":"Point","coordinates":[147.328756,-42.8957665]}},{"type":"Feature","properties":{"pinType":"cafe_restaurant","name":"Hugo Chinese Restaurant","osmUrl":"https://www.openstreetmap.org/node/2376753057"},"geometry":{"type":"Point","coordinates":[147.3290063,-42.8956438]}},{"type":"Feature","properties":{"pinType":"supermarket","name":"Grove Store","osmUrl":"https://www.openstreetmap.org/node/2382917580"},"geometry":{"type":"Point","coordinates":[147.0967441,-42.9816051]}},{"type":"Feature","properties":{"pinType":"cafe_restaurant","name":"Petty Sessions Cafe","osmUrl":"https://www.openstreetmap.org/node/2382929044"},"geometry":{"type":"Point","coordinates":[147.008468,-43.0931811]}},{"type":"Feature","properties":{"pinType":"cafe_restaurant","name":"Urban Greek","url":"https://urbangreek.com.au/","osmUrl":"https://www.openstreetmap.org/node/2383946928"},"geometry":{"type":"Point","coordinates":[147.3239072,-42.8815603]}},{"type":"Feature","properties":{"pinType":"cafe_restaurant","name":"Eucalypt Cafe","osmUrl":"https://www.openstreetmap.org/node/2397995279"},"geometry":{"type":"Point","coordinates":[147.8502117,-43.1404406]}},{"type":"Feature","properties":{"pinType":"cafe_restaurant","name":"Reef Cafe","osmUrl":"https://www.openstreetmap.org/node/2401089528"},"geometry":{"type":"Point","coordinates":[147.3425611,-42.90718]}},{"type":"Feature","properties":{"pinType":"gym_leisure","name":"Franklin Oval","osmUrl":"https://www.openstreetmap.org/node/2405884105"},"geometry":{"type":"Point","coordinates":[147.0120521,-43.0889151]}},{"type":"Feature","properties":{"pinType":"pharmacy","name":"Good Price Pharmacy Warehouse Kingston","osmUrl":"https://www.openstreetmap.org/node/2526035199"},"geometry":{"type":"Point","coordinates":[147.313343,-42.9742223]}},{"type":"Feature","properties":{"pinType":"cafe_restaurant","name":"AWU Delicious Food","osmUrl":"https://www.openstreetmap.org/node/2527899707"},"geometry":{"type":"Point","coordinates":[147.3345754,-42.8810418]}},{"type":"Feature","properties":{"pinType":"cafe_restaurant","name":"Saffron","osmUrl":"https://www.openstreetmap.org/node/2527899708"},"geometry":{"type":"Point","coordinates":[147.3348179,-42.8807337]}},{"type":"Feature","properties":{"pinType":"cafe_restaurant","name":"Drunken Admiral","url":"https://drunkenadmiral.net/","osmUrl":"https://www.openstreetmap.org/node/2527899709"},"geometry":{"type":"Point","coordinates":[147.3349313,-42.8811591]}},{"type":"Feature","properties":{"pinType":"cafe_restaurant","name":"The Timeless Way","osmUrl":"https://www.openstreetmap.org/node/2527899710"},"geometry":{"type":"Point","coordinates":[147.3358768,-42.8815562]}},{"type":"Feature","properties":{"pinType":"cafe_restaurant","name":"Fish Frenzy","url":"https://www.fishfrenzy.com.au/","osmUrl":"https://www.openstreetmap.org/node/2527902146"},"geometry":{"type":"Point","coordinates":[147.3333951,-42.8839156]}},{"type":"Feature","properties":{"pinType":"cafe_restaurant","name":"Asia Gourmet","url":"https://www.asiangourmetonthepier.com/","osmUrl":"https://www.openstreetmap.org/node/2527902148"},"geometry":{"type":"Point","coordinates":[147.334012,-42.8841986]}},{"type":"Feature","properties":{"pinType":"supermarket","name":"Salamanca Fresh","osmUrl":"https://www.openstreetmap.org/node/2530554746"},"geometry":{"type":"Point","coordinates":[147.332105,-42.8868627]}},{"type":"Feature","properties":{"pinType":"cafe_restaurant","name":"LNB Chicken","osmUrl":"https://www.openstreetmap.org/node/2530554751"},"geometry":{"type":"Point","coordinates":[147.3318368,-42.8870022]}},{"type":"Feature","properties":{"pinType":"cafe_restaurant","name":"Maldini Café Restaurant","url":"https://www.maldinirestaurant.com.au/","osmUrl":"https://www.openstreetmap.org/node/2530554755"},"geometry":{"type":"Point","coordinates":[147.3324457,-42.8868505]}},{"type":"Feature","properties":{"pinType":"cafe_restaurant","name":"Phat Fish","url":"https://phatfish.com.au/","osmUrl":"https://www.openstreetmap.org/node/2530554775"},"geometry":{"type":"Point","coordinates":[147.3331605,-42.8868525]}},{"type":"Feature","properties":{"pinType":"cafe_restaurant","name":"Mezethes","osmUrl":"https://www.openstreetmap.org/node/2530575969"},"geometry":{"type":"Point","coordinates":[147.3333173,-42.8872557]}},{"type":"Feature","properties":{"pinType":"cafe_restaurant","name":"Suzie Luck's","url":"https://www.smolt.com.au/","osmUrl":"https://www.openstreetmap.org/node/2530575976"},"geometry":{"type":"Point","coordinates":[147.3322069,-42.8873579]}},{"type":"Feature","properties":{"pinType":"cafe_restaurant","name":"Syra","url":"https://www.syrarestaurant.com.au","osmUrl":"https://www.openstreetmap.org/node/2530596602"},"geometry":{"type":"Point","coordinates":[147.3327273,-42.8875426]}},{"type":"Feature","properties":{"pinType":"cafe_restaurant","name":"Kathmandu Cuisine","url":"http://www.kathmanducuisine.com.au/","osmUrl":"https://www.openstreetmap.org/node/2530639259"},"geometry":{"type":"Point","coordinates":[147.3341958,-42.8897451]}},{"type":"Feature","properties":{"pinType":"cafe_restaurant","name":"Da Angelo","url":"https://daangelo.com/","osmUrl":"https://www.openstreetmap.org/node/2530639262"},"geometry":{"type":"Point","coordinates":[147.3342277,-42.8895467]}},{"type":"Feature","properties":{"pinType":"cafe_restaurant","name":"Cibo e Vino","osmUrl":"https://www.openstreetmap.org/node/2530650304"},"geometry":{"type":"Point","coordinates":[147.334407,-42.8895186]}},{"type":"Feature","properties":{"pinType":"cafe_restaurant","name":"Magic Curries","url":"https://magiccurries.com.au/","osmUrl":"https://www.openstreetmap.org/node/2530650310"},"geometry":{"type":"Point","coordinates":[147.3346329,-42.8894845]}},{"type":"Feature","properties":{"pinType":"cafe_restaurant","name":"Village Cafe","osmUrl":"https://www.openstreetmap.org/node/2530650322"},"geometry":{"type":"Point","coordinates":[147.3349729,-42.8896149]}},{"type":"Feature","properties":{"pinType":"cafe_restaurant","name":"Ginger Browns","osmUrl":"https://www.openstreetmap.org/node/2551144125"},"geometry":{"type":"Point","coordinates":[147.3094211,-42.894626]}},{"type":"Feature","properties":{"pinType":"cafe_restaurant","name":"Inspired by Vanidols","url":"https://www.vanidolsouth.com/","osmUrl":"https://www.openstreetmap.org/node/2551773595"},"geometry":{"type":"Point","coordinates":[147.3161542,-42.8924535]}},{"type":"Feature","properties":{"pinType":"cafe_restaurant","name":"Amico Pizzeria","osmUrl":"https://www.openstreetmap.org/node/2569339245"},"geometry":{"type":"Point","coordinates":[147.2952221,-42.8652599]}},{"type":"Feature","properties":{"pinType":"supermarket","name":"Lenah Valley Foodmarket","osmUrl":"https://www.openstreetmap.org/node/2569339250"},"geometry":{"type":"Point","coordinates":[147.2953884,-42.8653209]}},{"type":"Feature","properties":{"pinType":"cafe_restaurant","name":"KFC","url":"https://www.kfc.com.au/","osmUrl":"https://www.openstreetmap.org/node/2576579948"},"geometry":{"type":"Point","coordinates":[147.241792,-42.7344876]}},{"type":"Feature","properties":{"pinType":"cafe_restaurant","name":"Nando's","url":"https://www.nandos.com.au/","osmUrl":"https://www.openstreetmap.org/node/2613077613"},"geometry":{"type":"Point","coordinates":[147.315736,-42.8732855]}},{"type":"Feature","properties":{"pinType":"cafe_restaurant","name":"Taj Palace","osmUrl":"https://www.openstreetmap.org/node/2613077615"},"geometry":{"type":"Point","coordinates":[147.3168397,-42.8746189]}},{"type":"Feature","properties":{"pinType":"cafe_restaurant","name":"Brighton's Best Bakehouse","osmUrl":"https://www.openstreetmap.org/node/2614391371"},"geometry":{"type":"Point","coordinates":[147.2508149,-42.6998704]}},{"type":"Feature","properties":{"pinType":"cafe_restaurant","name":"Brighton Take Away","osmUrl":"https://www.openstreetmap.org/node/2614391375"},"geometry":{"type":"Point","coordinates":[147.2513612,-42.6999995]}},{"type":"Feature","properties":{"pinType":"gym_leisure","name":"PCYC Hobart","osmUrl":"https://www.openstreetmap.org/node/2625377883"},"geometry":{"type":"Point","coordinates":[147.3214207,-42.886745]}},{"type":"Feature","properties":{"pinType":"cafe_restaurant","name":"Providence","url":"https://plus.google.com/112036853203250378140/about?gl=au&hl=en","osmUrl":"https://www.openstreetmap.org/node/2634605644"},"geometry":{"type":"Point","coordinates":[147.3130291,-42.8741483]}},{"type":"Feature","properties":{"pinType":"cafe_restaurant","name":"KFC","url":"https://www.kfc.com.au/","osmUrl":"https://www.openstreetmap.org/node/2698014120"},"geometry":{"type":"Point","coordinates":[147.56549,-42.7821152]}},{"type":"Feature","properties":{"pinType":"cafe_restaurant","name":"Red Square Cafe","osmUrl":"https://www.openstreetmap.org/node/2718727930"},"geometry":{"type":"Point","coordinates":[147.4672773,-42.8335143]}},{"type":"Feature","properties":{"pinType":"gym_leisure","name":"Zap Fitness","osmUrl":"https://www.openstreetmap.org/node/2824282575"},"geometry":{"type":"Point","coordinates":[147.32522,-42.8854037]}},{"type":"Feature","properties":{"pinType":"cafe_restaurant","name":"Vanidol's","url":"https://vanidols.com/","osmUrl":"https://www.openstreetmap.org/node/2825545433"},"geometry":{"type":"Point","coordinates":[147.3154737,-42.873048]}},{"type":"Feature","properties":{"pinType":"cafe_restaurant","name":"Apollo Pizza","osmUrl":"https://www.openstreetmap.org/node/2871790739"},"geometry":{"type":"Point","coordinates":[147.0619824,-42.7813647]}},{"type":"Feature","properties":{"pinType":"cafe_restaurant","name":"Hungry Jack's","url":"https://www.hungryjacks.com.au/","osmUrl":"https://www.openstreetmap.org/node/2992144924"},"geometry":{"type":"Point","coordinates":[147.3189689,-42.8767271]}},{"type":"Feature","properties":{"pinType":"supermarket","name":"Midlands Fruit Market","osmUrl":"https://www.openstreetmap.org/node/3157439434"},"geometry":{"type":"Point","coordinates":[147.2353201,-42.7296204]}},{"type":"Feature","properties":{"pinType":"supermarket","name":"Coles","url":"https://www.coles.com.au/","osmUrl":"https://www.openstreetmap.org/node/3161934861"},"geometry":{"type":"Point","coordinates":[147.368848,-42.8653782]}},{"type":"Feature","properties":{"pinType":"supermarket","name":"Woolworths","url":"https://www.woolworths.com.au/","osmUrl":"https://www.openstreetmap.org/node/3161934864"},"geometry":{"type":"Point","coordinates":[147.3688855,-42.8652484]}},{"type":"Feature","properties":{"pinType":"cafe_restaurant","name":"Blue Eye","osmUrl":"https://www.openstreetmap.org/node/3174967444"},"geometry":{"type":"Point","coordinates":[147.3347344,-42.8865042]}},{"type":"Feature","properties":{"pinType":"cafe_restaurant","name":"Ball and Chain Grill","osmUrl":"https://www.openstreetmap.org/node/3174967445"},"geometry":{"type":"Point","coordinates":[147.334387,-42.886835]}},{"type":"Feature","properties":{"pinType":"pharmacy","name":"Macquarie Pharmacy","osmUrl":"https://www.openstreetmap.org/node/3196786154"},"geometry":{"type":"Point","coordinates":[147.3256475,-42.8864491]}},{"type":"Feature","properties":{"pinType":"cafe_restaurant","name":"Roaring Grill","url":"https://www.roaringgrill.com/","osmUrl":"https://www.openstreetmap.org/node/3201050975"},"geometry":{"type":"Point","coordinates":[147.3171271,-42.8744395]}},{"type":"Feature","properties":{"pinType":"cafe_restaurant","name":"Roberts Point Kiosk","osmUrl":"https://www.openstreetmap.org/node/3226100281"},"geometry":{"type":"Point","coordinates":[147.2863742,-43.1438296]}},{"type":"Feature","properties":{"pinType":"cafe_restaurant","name":"Sandy Bay Beach Wood Fired Pizza","osmUrl":"https://www.openstreetmap.org/node/3252923485"},"geometry":{"type":"Point","coordinates":[147.35626,-42.912361]}},{"type":"Feature","properties":{"pinType":"supermarket","name":"The Foodstore","osmUrl":"https://www.openstreetmap.org/node/3253316061"},"geometry":{"type":"Point","coordinates":[147.318174,-42.897593]}},{"type":"Feature","properties":{"pinType":"cafe_restaurant","name":"Beaujangles","osmUrl":"https://www.openstreetmap.org/node/3254609962"},"geometry":{"type":"Point","coordinates":[147.328421,-42.881723]}},{"type":"Feature","properties":{"pinType":"cafe_restaurant","name":"Subway","osmUrl":"https://www.openstreetmap.org/node/3254613376"},"geometry":{"type":"Point","coordinates":[147.3276,-42.881361]}},{"type":"Feature","properties":{"pinType":"supermarket","name":"The Opossum Bay Store","osmUrl":"https://www.openstreetmap.org/node/3254736461"},"geometry":{"type":"Point","coordinates":[147.4027196,-42.994076]}},{"type":"Feature","properties":{"pinType":"pharmacy","name":"Davey Street Discount Pharmacy","osmUrl":"https://www.openstreetmap.org/node/3254758463"},"geometry":{"type":"Point","coordinates":[147.320761,-42.8909786]}},{"type":"Feature","properties":{"pinType":"supermarket","name":"Fresco Market","osmUrl":"https://www.openstreetmap.org/node/3265081483"},"geometry":{"type":"Point","coordinates":[147.3553206,-42.9130541]}},{"type":"Feature","properties":{"pinType":"cafe_restaurant","name":"Wattlebanks Coastal Cafe","osmUrl":"https://www.openstreetmap.org/node/3320102861"},"geometry":{"type":"Point","coordinates":[147.8723335,-42.5590234]}},{"type":"Feature","properties":{"pinType":"supermarket","name":"supermarket","osmUrl":"https://www.openstreetmap.org/node/3338017240"},"geometry":{"type":"Point","coordinates":[147.19502,-42.8427651]}},{"type":"Feature","properties":{"pinType":"cafe_restaurant","name":"McDonald's","url":"https://www.mcdonalds.com.au/","osmUrl":"https://www.openstreetmap.org/node/3636604981"},"geometry":{"type":"Point","coordinates":[147.0634387,-42.782364]}},{"type":"Feature","properties":{"pinType":"cafe_restaurant","name":"Sault","osmUrl":"https://www.openstreetmap.org/node/3655333748"},"geometry":{"type":"Point","coordinates":[147.2941441,-42.8460084]}},{"type":"Feature","properties":{"pinType":"cafe_restaurant","name":"Dave's Noodles","osmUrl":"https://www.openstreetmap.org/node/3655333749"},"geometry":{"type":"Point","coordinates":[147.2941923,-42.8460851]}},{"type":"Feature","properties":{"pinType":"cafe_restaurant","name":"Soph Slice","osmUrl":"https://www.openstreetmap.org/node/3655333750"},"geometry":{"type":"Point","coordinates":[147.2942487,-42.8461578]}},{"type":"Feature","properties":{"pinType":"cafe_restaurant","name":"Rock Sea House","osmUrl":"https://www.openstreetmap.org/node/3655336029"},"geometry":{"type":"Point","coordinates":[147.2959844,-42.8478479]}},{"type":"Feature","properties":{"pinType":"cafe_restaurant","name":"Cyclo","osmUrl":"https://www.openstreetmap.org/node/3655336030"},"geometry":{"type":"Point","coordinates":[147.2961534,-42.8480465]}},{"type":"Feature","properties":{"pinType":"cafe_restaurant","name":"Bento","osmUrl":"https://www.openstreetmap.org/node/3658617940"},"geometry":{"type":"Point","coordinates":[147.2946837,-42.8466856]}},{"type":"Feature","properties":{"pinType":"cafe_restaurant","name":"Honey Badger Dessert Cafe","url":"https://honeybadgerdessertcafe.au/","osmUrl":"https://www.openstreetmap.org/node/3905823846"},"geometry":{"type":"Point","coordinates":[147.3326239,-42.887533]}},